lat,long,amenity,name,description,operator,brand,brand:wikipedia
43.0969006,131.867301,goverment,Vladivostok customs,Владивостокский таможенный пост,,,
43.1168825,131.8792176,atm,,,МДМ Банк,,
43.133078,131.8987251,culture,Москва,,,,
43.1121594,131.8731153,nightclub,Наутилус,,,,
43.1128919,131.9324321,education,,,,,
43.1317087,131.9125234,atm,Банкомат Росбанка,,,,
43.1155062,131.9354279,goverment,Нотариус,,,,
43.1331176,131.9125506,atm,,,РосБанк,,
43.1171471,131.8885959,goverment,,,,,
43.1162135,131.8814679,cafe,Studio Coffee,,,,
43.1181621,131.8800294,cafe,Paparazzi,,,,
43.1270206,131.9042875,bank,Примсоцбанк,,,,
43.1252389,131.9556961,cafe,Столовая,,,,
43.1261455,131.9428279,cafe,Корейская кухня,,,,
43.125375,131.9427743,medics,,,,,
43.1269305,131.9424438,atm,Росбанк,,,,
43.1269743,131.9425124,education,Седан-B,,,,
43.1269531,131.9417571,education,,,,,
43.1264791,131.9417468,pharmacy,,,,,
43.1272086,131.9406604,bank,Восточный Экспресс Банк,,,,
43.1272005,131.9405141,goverment,Адвокаты,,,,
43.1659306,131.9125262,atm,Банкомат Тихоокеанского банка,,,,
43.1684386,131.9093535,cafe,Азия,,,,
43.0994701,131.9409186,pharmacy,,,,,
43.0990654,131.9409586,post_office,Владивосток 690016,,АО «Почта России»,Почта России,ru:Почта России
43.0985965,131.952358,fuel,RS Нефть,,,,
43.1127173,131.9235354,medics,Дальзаводская поликлинника,,,,
43.1054882,131.9380492,restaurant,Панда сад,,,,
43.1052623,131.9379204,pharmacy,,,,,
43.1052918,131.9376405,pharmacy,,,Премиум-М,,
43.1004662,131.9303358,post_office,Владивосток 690077,,АО «Почта России»,Почта России,ru:Почта России
43.0983543,131.9259863,medics,,,,,
43.098415,131.9262512,veterinary,,,,,
43.0978935,131.9280406,pharmacy,Семейная,,,,
43.0985211,131.9281751,pharmacy,,,,,
43.0934137,131.9295814,car_wash,,,,,
43.0932134,131.9308377,fuel,,,,,
43.0891843,131.9261682,fuel,Мега Тэк,,,,
43.0889126,131.9222918,post_office,Владивосток 690017,,АО «Почта России»,Почта России,ru:Почта России
43.0893964,131.9103873,fuel,МегаТэк,,,,
43.0898795,131.9118949,car_wash,Анкер Авто,,,,
43.1276126,131.8999304,bank,Восточный Экспресс Банк,,,,
43.1154999,131.9070492,medics,Женская консультация,,"МУЗ ""Городской родильный дом""",,
43.1146744,131.9088597,bank,ВТБ Банк Москвы,,,ВТБ Банк Москвы,ru:Банк Москвы
43.1135187,131.9108801,bank,Интеза,,,,
43.1125927,131.919225,pharmacy,Ортопедия,,,,
43.1120877,131.920833,cafe,Точка Суши,,,,
43.1125324,131.9272101,pharmacy,,,,,
43.1146562,131.9090599,atm,Банк Москвы,,,,
43.1113043,131.9347901,bank,Росбанк,,,,
43.11127,131.9348761,atm,,,Росбанк,,
43.1144728,131.9123531,medics,Детская поликлинника. Отделение востановительного лечения,,,,
43.1145609,131.9123679,bank,ДВБ Банк,,,,
43.1145304,131.9122743,education,Открытая (сменная) школа №1,,,,
43.1173677,131.8887427,bank,Росбанк,,,,
43.1174339,131.888766,atm,,,Rosbank,,
43.117296,131.8891708,bank,Росбанк,,,,
43.1170642,131.8890105,bank,Сбербанк,,,,
43.1163004,131.8999072,veterinary,Дар,,,,
43.1154314,131.8884846,bank,Восточный Экспресс Банк,,,,
43.1153795,131.8884983,restaurant,Чёрный дракон,,,,
43.115441,131.8880176,atm,ДВ Банк,,,,
43.115044,131.8900431,post_office,Владивосток 690091,,АО «Почта России»,Почта России,ru:Почта России
43.1150147,131.8904752,atm,,,СвязьБанк,,
43.114979,131.8903489,bank,Связь Банк,,,,
43.115348,131.8904533,place_of_worship,Вечная радость,,,,
43.115223,131.8914446,cafe,"Арт-кафе ""Станиславский""",,,,
43.1146515,131.8922518,bank,Банк Приморье,,,,
43.1142649,131.8942714,education,Детская библиотека им. Пушкина,,,,
43.1141993,131.8942931,goverment,Флотский военный суд,,,,
43.1139717,131.8957827,cafe,Кафетория,,,,
43.1137407,131.895541,bank,Азиатско-Тихоокеанский Банк,,,,
43.113922,131.8960195,pharmacy,,,Приморская краевая аптека,,
43.1142793,131.8987671,bank,Авангард,,,,
43.1142892,131.898883,atm,Банкомат банка Авангард,,,,
43.1143291,131.899024,pharmacy,,,,,
43.1143545,131.8991739,bank,Казначейство россии. Управление по приморскому краю,,Федеральное казначейство России,,
43.1145127,131.8996644,bank,Центральный банк России,,,,
43.1025894,131.9036107,post_office,Владивосток 690012,,АО «Почта России»,Почта России,ru:Почта России
43.1051551,131.8727732,pharmacy,Аптека,,,,
43.1264061,131.9151117,pharmacy,Аптека №151,,,,
43.1624273,131.9115139,culture,Иллюзион,,,,
43.1200804,131.8774459,fast_food,Royal Burger,,,,
43.163457,131.916021,cafe,,,,,
43.1633277,131.9156503,restaurant,Хортица,,,,
43.126902,131.9137695,medics,Детская поликлиника №7,,,,
43.1280491,131.9052297,medics,Поликлиника №1 терапевтическое отделение,,,,
43.1267525,131.9208139,pharmacy,,,,,
43.1316637,131.9109842,pharmacy,,,,,
43.1322954,131.9131325,pharmacy,,,,,
43.1200209,131.9080284,medics,"Владивостокская поликлиника №2, КГБУЗ",,,,
43.1210184,131.9072062,medics,Детская городская поликлиника №2,,,,
43.1154133,131.9027473,nightclub,Стэлс,,,,
43.116987,131.8862055,pharmacy,Аптека №33,,,,
43.1037522,131.8654238,goverment,ПЧ-3,,,,
43.1579562,131.9265597,pharmacy,Семейная аптека,,,,
43.1140359,131.8848043,cafe,,,,,
43.1140681,131.8848369,atm,Номос Региобанк,,,,
43.1153216,131.9430857,post_office,Владивосток 690013,,АО «Почта России»,Почта России,ru:Почта России
43.128032,131.9390176,alco,BeerЛога,,,,
43.1305735,131.9403924,medics,,,,,
43.1257835,131.9459084,pharmacy,Аптека,,,,
43.1084885,131.8736004,restaurant,7 футов,,,,
43.1091497,131.9405388,car_wash,,,,,
43.1036841,131.9469608,facility,,,,,
43.1113779,131.9369954,atm,,,Муниципальный Камчатпрофитбанк,,
43.1116436,131.9369895,fast_food,"Столовая ""Копейка""",,,,
43.1136293,131.9367751,pharmacy,,,,,
43.1251026,131.9590875,cafe,Китайская пища,,,,
43.1254455,131.9592892,cafe,Трапеза,Казахская и русская кухня.,,,
43.1252133,131.9585224,fast_food,У тёти Люды,"Напитки, выпечка, бутерброды.",,,
43.12497,131.9574104,fast_food,Шаурма,"Круглосуточно. Хотдоги, пирожки, шаурма, плов, чай, кофе, напитки",,,
43.123653,131.9639551,facility,,,,,
43.1255585,131.9576209,facility,,,,,
43.1252742,131.95745,restaurant,Чор-Минор,"Узбекская, уйгурская, русская, европейская кухня. По будним дням есть вкусные и недорогие комплексные обеды. Кафе находится на самом въезде на авторынок ""Зелёный угол"", есть небольшая парковка.",,,
43.1163674,131.9607665,pharmacy,Аптека № 219,,,,
43.1582248,131.9150807,medics,Кожно-венерологический диспансер,,,,
43.1214992,131.9532474,alco,BeerLoga,,,,
43.1143661,131.918165,car_wash,,,,,
43.2013404,131.9499496,car_wash,,,,,
43.1239581,131.9389217,bank,Сбербанк России,,Сбербанк России,,
43.1966362,132.1222649,cafe,Две палочки,,,,
43.1952111,132.1104951,cafe,Алёна,,,,
43.1164931,131.9476127,car_wash,,,,,
43.1363696,131.9673865,fuel,НК Альянс,,,,
43.1370751,131.9427964,fuel,,,Литаг-Ойл,,
43.1125934,131.9364833,fast_food,Кошкин дом,,,,
43.155921,131.91879,pharmacy,,,,,
43.1054957,131.9456435,pharmacy,Аптечная база,,,,
43.1058111,131.9460588,veterinary,,,,,
43.1058254,131.9462641,pharmacy,Владивостокская фармацефтическая фабрика,,,,
43.1052912,131.9462414,pharmacy,,,,,
43.1141287,131.8852961,bank,,,,,
43.1146614,131.8822207,bank,Промсвязьбанк,,Promsvyazbank,,
43.1006885,131.9494047,medics,,,,,
43.0997505,131.9445307,cafe,Старое кафе,,,,
43.0977418,131.9406233,facility,,,,,
43.1050075,131.9378312,atm,Банкомат Росбанка,,Росбанк,,
43.1050469,131.9378491,bank,Росбанк,,,,
43.1068019,131.9387467,bank,Совкомбанк,,,,
43.1071757,131.9389264,medics,,,,,
43.104765,131.9377053,cafe,Интернет Кафе,,,,
43.1038391,131.9465196,pharmacy,Приморская краевая аптека №78,,,,
43.1060192,131.9453844,facility,,,,,
43.1057912,131.9457243,pharmacy,,,,,
43.0975916,131.9747612,car_wash,,,,,
43.0975602,131.976901,goverment,Государственный Технический осмотр,,,,
43.1118681,131.9390504,pharmacy,Тимьян,,,,
43.1685261,131.9339681,fast_food,,,,,
43.1648994,131.942018,car_wash,,,,,
43.164134,131.9412991,car_wash,,,,,
43.1485374,131.9526482,cafe,Золотой петушок,закусочная,,,
43.1452804,131.9522769,car_wash,,,,,
43.1157528,131.9110397,facility,,,,,
43.1114584,131.9396132,bank,Азиатско-Тихоокеанский Банк,,,,
43.1118082,131.9395047,telephone,,,,,
43.1117768,131.9382147,cafe,Inter@zone,,,,
43.1122393,131.9378627,cafe,Гонконг,,,,
43.1113415,131.937673,cafe,Масис,,,,
43.1115493,131.93608,pharmacy,Аптека,,,,
43.1120808,131.9328125,pharmacy,Госаптека,,,,
43.1246249,131.8865432,restaurant,Рестоград,,,,
43.1113654,131.9289389,atm,Росбанк,,Росбанк,,
43.1113624,131.928879,atm,ПримСоцБанк,,,,
43.1120427,131.9278144,facility,,,,,
43.1121778,131.9269693,facility,,,,,
43.112467,131.9267221,medics,Дентал люкс,,,,
43.1121564,131.9262396,pharmacy,,,"ОАО ""Формация""",,
43.1146526,131.9236796,facility,,,,,
43.1126259,131.921307,facility,,,,,
43.1125637,131.9198098,medics,Детская стоматология,,,,
43.1125404,131.9193866,atm,,,,,
43.1125451,131.9177866,cafe,T&M Cofee Cafe,,,,
43.1133205,131.9149436,medics,Клинико-диагностический центр г. Владивостока.,,,,
43.1137009,131.9135818,facility,,,,,
43.1146323,131.913315,medics,,,,,
43.1138651,131.9143767,bank,Сбербанк России. Обслуживание юридеческих лиц.,,,,
43.1137958,131.9147073,post_office,Владивосток 690001,,АО «Почта России»,Почта России,ru:Почта России
43.1137097,131.9151012,post_office,"Курьерская служба ""Регион-Курьер""",,,,
43.1139128,131.916794,bank,Солид банк,,,,
43.1134916,131.9315624,alco,Ceska Pivince,,,,
43.1143532,131.9331925,facility,,,,,
43.127028,131.941698,pharmacy,,,,,
43.1270849,131.9411776,pharmacy,,,,,
43.1124726,131.9341966,medics,,,Ооо Клип-Дент,,
43.1121323,131.9287066,facility,,,,,
43.1111356,131.9259545,medics,Отделение микробиологической лаборатории,,,,
43.1108885,131.9262101,medics,,,,,
43.1119933,131.9216827,goverment,ГрандЮрСервис,,,,
43.1119131,131.9210254,facility,,,,,
43.1041405,131.9435255,facility,,,,,
43.1045684,131.9423641,facility,,,,,
43.1677237,131.916807,pharmacy,Семейная аптека,,,,
43.168056,131.918056,medics,,,,,
43.1686021,131.9207887,pharmacy,Приморская краевая аптека,,,,
43.1686979,131.9212357,atm,,,Сбербанк,,
43.1686824,131.9212918,bank,Сбербанк,,"ОАО ""Сбербанк России""",,
43.168914,131.922939,bank,Росбанк,,,,
43.1689209,131.9229464,atm,,,Росбанк,,
43.1689076,131.923015,pharmacy,Ортопедия,,,,
43.1688347,131.9230164,pharmacy,Медтехника,,,,
43.1689047,131.9237611,veterinary,Ветеринарная аптека,,,,
43.1687844,131.924515,pharmacy,,,,,
43.1688132,131.9245636,bank,Совкомбанк,,,,
43.1688641,131.9251606,restaurant,Via-Vai,,,,
43.1689104,131.9257701,restaurant,Китайский ресторан,,,,
43.1688687,131.9282464,education,Библиотека № 13,,,,
43.1692882,131.9299299,pharmacy,Орто мед,,,,
43.1692736,131.9305447,bank,Восточный экспресс банк,,,,
43.1687274,131.9320439,cafe,Мона,,"ООО ""КАРАТ Б""",,
43.1503739,131.9540973,cafe,"""У Хасана""",,,,
43.1507016,131.95449,fast_food,Медитерия,,,,
43.1513095,131.9543206,cafe,,,,,
43.167121,131.9402741,car_wash,Автомойка,,,,
43.2224436,131.9679097,alco,"""Японский городовой"" Суши-Бар",,,,
43.2244326,131.9928153,fast_food,"Грилль, Горячие обеды",,,,
43.2295838,132.0083643,telephone,,,,,
43.1159219,131.8888514,bank,Сбербанк,,Сбербанк России,,
43.1159021,131.8888065,atm,Сбербанк,,,,
43.1157207,131.8887439,goverment,Участковый пункт №17,,,,
43.2077421,132.0776539,facility,,,,,
43.2077368,132.0775786,cafe,,,,,
43.1108847,131.9382975,fast_food,Рим-Токио,,,,
43.1343076,131.9486728,car_wash,Мойдодыр,,,,
43.1343854,131.9486296,cafe,Армения,,,,
43.1342522,131.9484066,fast_food,,,,,
43.1071202,131.9400995,facility,,,,,
43.1117634,131.9385733,alco,DISCO BAR,,,,
43.1111326,131.9379419,alco,,,,,
43.1114309,131.9379225,fast_food,"Пирожки, торты, кофе",,,,
43.1115351,131.9381577,pharmacy,,,,,
43.1115538,131.943931,facility,,,,,
43.1693827,131.9256155,pharmacy,ovita,,,,
43.1117486,131.937016,facility,,,,,
43.11092,131.9359437,medics,,,,,
43.121535,131.9071911,medics,Краевой психоневрологический диспансер,,,,
43.1222153,131.9078545,medics,"Владивостокская поликлиника №2, КГБУЗ",,,,
43.122022,131.9078983,pharmacy,,,,,
43.1249098,131.9097572,post_office,Владивосток 690014,,АО «Почта России»,Почта России,ru:Почта России
43.1264231,131.9118947,bank,Роял Кредит Банк,,,,
43.1262146,131.9114071,bank,Сбербанк,,,,
43.1160029,131.9085761,goverment,Ленинский районый суд,,,,
43.1258649,131.9053009,education,Библиотека ВГУЭС,,,,
43.0988673,131.9326278,pharmacy,,,,,
43.0996425,131.9330718,medics,Детская поликлиника № 6,,,,
43.100741,131.9351068,medics,Стоматологическая поликлиника № 2,,,,
43.0903675,131.9673854,pharmacy,,,,,
43.0919061,131.9703655,pharmacy,,,,,
43.1227553,131.9225961,car_wash,Автомойка,,,,
43.1000843,131.9306511,pharmacy,,,,,
43.1859237,131.9107278,medics,Поликлиника,,,,
43.18644,131.9109746,medics,Стационар,,,,
43.1868507,131.9109102,medics,"Лаборатория ""Экологической нейрокибернетики""",,,,
43.0994205,131.9310739,pharmacy,,,,,
43.1008162,131.940994,atm,Россельхозбанк,,,,
43.09878,131.9392061,medics,,,,,
43.116477,131.883706,culture,Приморский краевой драматический театр молодежи,,ГАУК «Приморский краевой драматический театр молодежи»,,
43.0968423,131.9374566,facility,,,,,
43.0989422,131.936028,facility,,,,,
43.1001655,131.9357403,facility,,,,,
43.0933903,131.8630154,pharmacy,,,,,
43.0934632,131.865614,post_office,Владивосток 690065,,АО «Почта России»,Почта России,ru:Почта России
43.103303,131.9368512,medics,Ultradent,медико-стоматологическая компания,,,
43.1005568,131.9329612,medics,,,,,
43.0951708,131.862542,pharmacy,Ликарня,,,,
43.0954899,131.8622051,education,Детский сад №45,,,,
43.1341269,131.9374064,car_wash,,,,,
43.1341967,131.9377935,car_wash,,,,,
43.1360835,131.9343764,fuel,RSнефть,,,,
43.1341515,131.9375553,cafe,Grand Prix,,,,
43.1366776,131.9341825,car_wash,,,,,
43.1367128,131.9341753,cafe,PRADO,,,,
43.1113362,131.8797136,pharmacy,,,,,
43.1075748,131.876425,pharmacy,,,,,
43.1126774,131.8780517,pharmacy,,,,,
43.1117782,131.8779443,atm,,,Банк Приморье,,
43.0943802,131.8625103,education,Библиотека №5,,,,
43.0927119,131.8615818,pharmacy,,,o'vita,,
43.0940471,131.8624899,pharmacy,,,,,
43.118137,131.8936905,fast_food,Столовая,,,,
43.1977377,132.131047,restaurant,Cinema,,,,
43.0942536,131.970673,medics,Владивостокская детская поликлиника №6,,,,
43.1420935,131.9106903,medics,,,,,
43.2073744,132.0774777,cafe,,,,,
43.1230962,131.8879937,pharmacy,,,,,
43.109632,131.8781764,restaurant,Золотой Дракон,,,,
43.103394,131.8703586,pharmacy,,,,,
43.112585,131.878497,culture,"детский клуб ""Звездный""",,,,
43.1333078,131.9348276,facility,,,,,
43.1123163,131.8783317,atm,,,,,
43.1054525,131.8720842,medics,,,,,
43.1066597,131.8754683,medics,Smile,,,,
43.1096831,131.8767398,cafe,29 крабов,,,,
43.1117157,131.8777409,medics,Клиника стоматологии и ордонтологии,,,,
43.1156626,131.8770591,restaurant,Бохай,,,,
43.1168255,131.8806086,restaurant,7 самураев,,,,
43.1168786,131.8804937,education,детский сад №31,,,,
43.1153873,131.8767714,cafe,Экватор,,,,
43.1694176,131.9099145,pharmacy,Анталь,,,,
43.1128111,131.9166254,bank,Сбербанк,,Сбербанк России,,
43.1190139,131.8869403,bank,Сбербанк,,,,
43.0911741,131.9708333,pharmacy,Аптека,,,,
43.1143488,131.9349633,facility,,,,,
43.1138715,131.9197848,goverment,Административное территориальное управление Ленинского района г. Владивостока,,,,
43.1138587,131.9200105,goverment,МВД РФ. УВД По Ленинскому району г. владивостока. Отделение по борьбе с незаконным оборотом наркотиков.,,,,
43.1138139,131.9200061,goverment,МВД РФ. УВД По Ленинскому району г. владивостока. Отделение по борьбе с преступностью среди несовершеннолетних.,,,,
43.1126144,131.9201169,community_centre,Благотворительный ортопедический фонд,,"Компания ""Стингрей""",,
43.1127048,131.936997,telephone,,,,,
43.1126865,131.9369423,vending_machine,Приём платежей,,,,
43.1148332,131.934831,post_office,Владивосток 690005,,АО «Почта России»,Почта России,ru:Почта России
43.1331493,131.8949988,car_wash,,,,,
43.1096475,131.9420544,facility,,,,,
43.1108496,131.9425893,facility,,,,,
43.110866,131.9438882,facility,,,,,
43.1129307,131.8923383,bank,Бинбанк,,,,
43.11367,131.8879808,atm,,,Росбанк,,
43.1138477,131.8950407,atm,,,Росбанк,,
43.1137662,131.8954124,atm,,,АТБ,,
43.1149574,131.9037302,atm,,,Сбербанк,,
43.1152559,131.90643,post_office,Владивосток 690090,,АО «Почта России»,Почта России,ru:Почта России
43.1115038,131.9154584,facility,,,,,
43.1907211,132.1053386,facility,,,,,
43.0980671,131.9750649,facility,,,,,
43.0983991,131.967617,facility,,,,,
43.0981359,131.9689308,atm,Банкомат Росбанка,,Росбанк,,
43.1137168,131.895641,fast_food,Бургер Кинг,,,,ru:Burger King
43.1131992,131.9222396,veterinary,DO&CA,"Клуб красоты для домашних любимцев. Стрижка, мытье, СПА-процедуры, одежда, аксессуары, сумки, игрушки.",,,
43.1278441,131.9022248,pharmacy,Аптечный пункт,,,,
43.1252998,131.8951033,telephone,,,,,
43.1248025,131.8846338,education,Приморская краевая научная медицинская библиотека,,,,
43.0899031,131.9667801,atm,,,Росбанк,,
43.0910574,131.9704692,atm,,,Росбанк,,
43.0910417,131.9704211,bank,Росбанк,,Росбанк,,
43.1485404,131.9143537,post_office,Владивосток 690018,,АО «Почта России»,Почта России,ru:Почта России
43.1554469,131.9093166,goverment,УВД по Первореченскому району г. Владивосток,,,,
43.08883,131.9677,medics,Ивалга,стоматология,,,
43.0982989,131.9033729,bank,Банк Приморье,,,,
43.1193518,131.8843117,bank,Росбанк,,,,
43.159081,131.9126625,atm,,,Сбербанк,,
43.1551507,131.9125558,pharmacy,,,,,
43.1586736,131.9123985,pharmacy,,,,,
43.1580816,131.9123735,pharmacy,Семейная,,,,
43.1202063,131.8915907,facility,,,,,
43.1736463,131.9389487,pharmacy,Аптека Монастырёв.рф,,,,
43.2236306,131.9928527,facility,,,,,
43.2237083,131.9909267,facility,,,,,
43.2237467,131.9913424,facility,,,,,
43.2238257,131.9912291,facility,,,,,
43.2197491,131.9907427,facility,,,,,
43.2199375,131.9920259,facility,,,,,
43.2201418,131.9906286,facility,,,,,
43.2201783,131.9906479,facility,,,,,
43.2201897,131.990645,facility,,,,,
43.2202185,131.9899336,facility,,,,,
43.2203372,131.992148,facility,,,,,
43.2203384,131.9921419,facility,,,,,
43.2208117,131.9923012,facility,,,,,
43.2209441,131.9888364,facility,,,,,
43.2212752,131.9885011,facility,,,,,
43.2213891,131.9896611,facility,,,,,
43.2213911,131.9896539,facility,,,,,
43.2213971,131.9896635,facility,,,,,
43.2231752,131.9930126,facility,,,,,
43.2231754,131.9930203,facility,,,,,
43.2224098,131.9904243,facility,,,,,
43.2224112,131.9904181,facility,,,,,
43.2227173,131.9906151,facility,,,,,
43.2230252,131.9907314,facility,,,,,
43.2230534,131.9908027,facility,,,,,
43.2232675,131.9908483,facility,,,,,
43.2168577,131.9596939,atm,,,Росбанк,,
43.2168522,131.9597627,facility,,,,,
43.2168774,131.9597097,atm,,,ПримСоцБанк,,
43.1239662,131.9050565,car_wash,,,,,
43.12411,131.9051456,pharmacy,,,,,
43.1221706,131.9044237,alco,Киото,susi-bar,,,
43.1176792,131.900513,facility,,,,,
43.1177164,131.9006984,facility,,,,,
43.118081,131.9007064,facility,,,,,
43.1181212,131.9007338,facility,,,,,
43.1182689,131.9005745,facility,,,,,
43.1184558,131.9002752,facility,,,,,
43.104653,131.963447,car_wash,H2,"автомойка, химчистка",,,
43.104027,131.9602899,facility,,,,,
43.1047572,131.9544469,car_wash,MDM,,,,
43.1051941,131.9523685,restaurant,Шанхай,,,,
43.1073812,131.9517213,facility,,,,,
43.1074696,131.9537599,facility,,,,,
43.1075798,131.957685,goverment,Единое социальное окно,Отделение приёма граждан по социальным вопросам Ленинского р-на,Администрация Приморского края. Департамент социальной защиты населения.,,
43.1061557,131.9563121,pharmacy,Аптечный пункт,,"ООО ""Сейм""",,
43.1063796,131.9564644,medics,Стоматология,,,,
43.0990513,131.9788913,fuel,,,,,
43.099483,131.9802454,cafe,,,,,
43.1693289,131.9217169,bank,ВТБ,,Банк ВТБ (публичное акционерное общество),ВТБ,
43.1692677,131.9216665,atm,,,Банк ВТБ (ПАО),,
43.1686585,131.9346391,atm,,,ВТБ24,,
43.1676346,131.9238281,post_office,Владивосток 690049,,АО «Почта России»,Почта России,ru:Почта России
43.2073196,132.0785705,cafe,ШумУшел,,,,
43.2078523,132.0781365,facility,мангал,,,,
43.2078985,132.0780732,facility,,,,,
43.2084771,132.0784118,facility,,,,,
43.208248,132.0766327,fast_food,сэндвичи и пончики,,,,
43.2078453,132.0781494,facility,,,,,
43.2078483,132.0781411,facility,,,,,
43.2078597,132.0781544,facility,,,,,
43.2078915,132.0780861,facility,,,,,
43.2078953,132.0780786,facility,,,,,
43.2079058,132.0780911,facility,,,,,
43.2084883,132.0784047,facility,,,,,
43.1008285,131.8947159,medics,GreenSpreeng,информационно сервисный центр. Медицина древнего китая.,,,
43.1016748,131.893759,pharmacy,Аптека - 35,,,,
43.1021037,131.8940666,medics,Травмпункт №2,,,,
43.1006704,131.8949009,pharmacy,,,,,
43.1011262,131.8950884,facility,,,,,
43.0997773,131.8937215,cafe,Кавказ,,,,
43.0996583,131.8940115,pharmacy,,,"ООО ""Интера""",,
43.1109658,131.9437857,facility,,,,,
43.1110782,131.9437721,facility,,,,,
43.1110523,131.9437995,facility,,,,,
43.1124995,131.9499482,facility,,,,,
43.1138699,131.9427817,education,Частный детский сад Никита,,,,
43.1746502,131.9323935,cafe,,,,,
43.1763787,131.9311402,pharmacy,аптека,,,,
43.1689308,131.9251509,atm,,,Газпромбанк,,
43.16974,131.9221671,restaurant,Китайский ресторанчик,,,,
43.1109554,131.943799,facility,,,,,
43.1109851,131.943925,facility,,,,,
43.1110015,131.943905,facility,,,,,
43.1111027,131.9437963,facility,,,,,
43.1111077,131.9437375,facility,,,,,
43.1111237,131.9437732,facility,,,,,
43.1111348,131.9437067,facility,,,,,
43.1111469,131.943746,facility,,,,,
43.1111617,131.9436722,facility,,,,,
43.1108057,131.9359511,bank,ПримСоцБанк,,ПримСоцБанк,,
43.1110266,131.9361301,post_box,,"Дни выемки: Пн-Пт - 7:00, 14:15; Сб-Вс - 11:00",Почта России,,
43.1115455,131.9361258,facility,,,,,
43.1115597,131.9361251,facility,,,,,
43.111825,131.9381574,atm,,с функцией внесаения,Альфа-Банк,,
43.1514379,131.9140803,post_box,,,,,
43.1532052,131.9088184,pharmacy,,,,,
43.1442069,131.9075003,pharmacy,Аптека Солид,,,,
43.1464704,131.9065304,pharmacy,,,,,
43.1738869,131.939108,atm,,,ДВБанк,,
43.1522744,131.9081035,cafe,,,,,
43.1511511,131.9072728,pharmacy,,,,,
43.1203,131.8836158,pharmacy,,,,,
43.1073523,131.9409285,culture,Ромашка,детский развивающий центр,,,
43.1072572,131.9410265,facility,,,,,
43.1072719,131.9410285,atm,,,Далькомбанк,,
43.1072879,131.941172,facility,,,,,
43.1054402,131.9434362,post_box,,,Почта России,,
43.1055075,131.9433564,facility,,,,,
43.1113938,131.93699,atm,,,Примсоцбанк,,
43.0940134,131.9640363,pharmacy,,,"ООО ""Центр красоты и здоровья ""Виктория""",,
43.1077491,131.9428412,facility,,,,,
43.1077567,131.9428306,facility,,,,,
43.1077827,131.9425701,facility,,,,,
43.1077838,131.9427668,facility,,,,,
43.1078096,131.9425928,facility,,,,,
43.1078266,131.9426859,facility,,,,,
43.1093027,131.9431435,facility,,,,,
43.1104098,131.9430244,facility,,,,,
43.110438,131.9430059,facility,,,,,
43.1104614,131.9429898,facility,,,,,
43.1104646,131.942981,facility,,,,,
43.1108498,131.9384457,cafe,Милан,,,,
43.1115671,131.9412892,facility,,,,,
43.1123071,131.9420328,facility,,,,,
43.1104658,131.9421684,facility,,,,,
43.1104912,131.9428349,facility,,,,,
43.1106661,131.9428907,facility,,,,,
43.1106733,131.9429447,facility,,,,,
43.1106812,131.942996,facility,,,,,
43.1127471,131.9407344,vending_machine,КиберКасса,,,,
43.1138163,131.9427764,pharmacy,,,"ООО ""Альцеа-Фарм""",,
43.168757,131.9349399,cafe,Курёнок,,,,
43.1686484,131.9346985,atm,,,Сбербанк,,
43.1686532,131.9346702,atm,,,Росбанк,,
43.1687012,131.9348891,atm,,,Примсвязьбанк,,
43.1688414,131.9348808,facility,,,,,
43.1578964,131.9175924,medics,,,,,
43.1321159,131.9127284,fast_food,"Суши-Т, Пица-Студио, Кафе",,,,
43.1211704,131.8868045,fast_food,Пицца-Рико,,,,
43.1055031,131.871486,facility,,,,,
43.1129437,131.8809778,fast_food,OKI DOKI,бистро пиццерия,,,
43.1131181,131.8809322,alco,Roshimi,sushibar,,,
43.1132548,131.8808915,bank,ПримСоцБанк,,,,
43.1130121,131.8809032,cafe,Происки буржуазии,,,,
43.1128216,131.8809552,bank,Роял Кредит Банк,,,,
43.115041,131.8821906,community_centre,Союз художников России,,"Приморская организация Всеросийской творческой общественной организации ""Союз художников России""",,
43.11465,131.8821826,atm,,,Промсвязьбанк,,
43.1128502,131.880967,atm,,,Роял Кредит Банк,,
43.1128792,131.8809734,atm,,,Дальневосточный банк,,
43.1160062,131.8867885,facility,,,Уссури,,
43.1426147,131.9106313,car_wash,Автомойка,,,,
43.1424515,131.9106403,vending_machine,Приём платежей,,,,
43.1441541,131.9074184,medics,,,,,
43.1224607,131.9125289,car_wash,Автомойка,,,,
43.1223714,131.9121426,medics,"Психологический центр ""Берегиня""",,,,
43.1213434,131.886452,cafe,Traveler's Coffee,,,,
43.1302673,131.9397551,car_wash,Альянс Авто,,,,
43.1203819,131.8829478,bank,Сбербанк,,Сбербанк России,,
43.1040233,131.8987883,car_wash,,,,,
43.1121376,131.9369844,fast_food,OKI-DOKI,,,,
43.1602529,131.9235196,car_wash,,,,,
43.1090225,131.9413223,vending_machine,Приём платежей,,,,
43.1089977,131.9412999,facility,,,,,
43.1077277,131.9428762,cafe,Буфет,Горячие обеды,,,
43.1578976,131.9108666,bank,ПримСоцБанк,,ПримСоцБанк,,
43.1579518,131.9108749,cafe,Эльзас,,,,
43.1767448,131.9188947,cafe,Бахрома,,,,
43.1773412,131.9190301,fuel,НК Альянс,,НК Альянс,НК Альянс,
43.1214564,131.8898338,atm,,,Связь-банк,,
43.1078735,131.9423539,medics,Флюорографический кабинет,,МУЗ ГКБ №4,,
43.1058595,131.9439773,facility,,,,,
43.1058839,131.9440383,facility,,,,,
43.1116514,131.8829298,atm,Сбербанк,,,,
43.1116514,131.8831873,atm,Газпромбанк,,,,
43.1119804,131.8831873,cafe,Морской лев,,,,
43.2451495,132.0345474,facility,колонка,,,,
43.2639082,132.0272107,car_wash,,,,,
43.1112024,131.8816983,atm,,,Транскредит Банк,,
43.1229861,131.9129345,medics,Ультрадент,"Мед центр: стоматология, терапевт, гинеколог, лор, массаж и др.",,,
43.2476111,132.0352861,facility,Колодец,,,,
43.2461417,132.0329556,facility,колонка,,,,
43.2472473,132.022069,facility,,,,,
43.2471695,132.0234401,facility,,,,,
43.2471664,132.0221903,facility,,,,,
43.241683,132.0219506,facility,колонка,,,,
43.2396157,132.0202566,facility,колонка,,,,
43.2613547,132.029967,facility,,,,,
43.2401458,132.0243602,pharmacy,Аптека,,,,
43.2643487,132.0264301,cafe,Format,,,,
43.2563388,132.0415126,facility,колонка,,,,
43.2600906,132.0198228,facility,колонка,,,,
43.2576926,132.0195628,facility,колонка,,,,
43.0899658,131.9582206,facility,,,,,
43.0936043,131.9594923,facility,,,,,
43.0876204,131.9417754,facility,,,,,
43.0876596,131.9417725,facility,,,,,
43.1114908,131.8818183,medics,Мед. пункт,,,,
43.1132388,131.8844326,facility,,,,,
43.1132762,131.8842711,facility,,,,,
43.1132926,131.8842778,facility,,,,,
43.1146584,131.8890121,medics,Галс Дентал,,,,
43.1147688,131.8884022,medics,Медкомиссия,,ФГУ ДВОМЦ ФМБА РОССИИ,,
43.1149338,131.8882879,facility,,,,,
43.1149762,131.8883787,facility,,,,,
43.1152204,131.8891343,pharmacy,,,,,
43.1137126,131.8983543,facility,,,,,
43.1137174,131.8983727,facility,,,,,
43.1137577,131.8984596,facility,,,,,
43.1137706,131.8984826,facility,,,,,
43.1137773,131.8985332,facility,,,,,
43.1137778,131.8985148,facility,,,,,
43.1138399,131.8983419,facility,,,,,
43.1138931,131.8985736,facility,,,,,
43.1139026,131.8991047,facility,,,,,
43.1139155,131.8991277,facility,,,,,
43.1139313,131.8992009,facility,,,,,
43.1139227,131.89916,facility,,,,,
43.1140034,131.8996664,facility,,,,,
43.1140067,131.8996786,facility,,,,,
43.1140336,131.8992042,facility,,,,,
43.1140984,131.8994765,facility,,,,,
43.1141036,131.8995019,facility,,,,,
43.1141665,131.8997771,facility,,,,,
43.1141697,131.8998019,facility,,,,,
43.1146771,131.9021002,community_centre,Ансамбль песни и пляски тихоокеанского флота России,,Тихоокеанский флот России,,
43.1149699,131.9035549,atm,,,Сбербанк,,
43.1557994,131.9269482,pharmacy,Аптека,,,,
43.1554056,131.9269948,restaurant,Китайский ресторан,,,,
43.1570336,131.9253937,restaurant,Эбису,"юр. адрес: Владивосток, Волгоградская 7А","ООО ""Атмос.Ру""",,
43.1565669,131.9272512,facility,,,,,
43.156961,131.9273738,facility,,,,,
43.1570343,131.9253156,facility,,,,,
43.1571029,131.9272878,post_box,,,Почта России,,
43.1572007,131.9263915,atm,,банкомат,Банк Приморье,,
43.1024093,131.9594188,facility,,,,,
43.098655,131.9677419,fast_food,PIT-STOP,"суши, роллы",,,
43.1012817,131.9642618,vehicle_ramp,,,,,
43.0984038,131.9778966,facility,,,,,
43.1131838,131.8824188,facility,,,,,
43.1094288,131.8756278,cafe,il Lido Cafe,,,,
43.119523,131.8839259,cafe,Koritsa,media cafe,,,
43.1202834,131.8852268,cafe,Гемма Плюс,,,,
43.1201517,131.8863054,heduction,Институт повышения квалификации и профессиональной переподготовки специалистов,,Тихоокеанский Государственный Экономический Университет,,
43.1201118,131.886375,education,Школа биомедицины / экономики и менеджмента,,,,
43.1195898,131.8847689,cafe,Элисс,,,,
43.1199844,131.8867185,facility,,,,,
43.120069,131.8861062,atm,,,Дальневосточный банк,,
43.257473,132.040731,medics,Детская поликлиника,,,,
43.1073795,131.9827567,facility,,,,,
43.1550663,131.9321373,car_wash,Автомойка,,,,
43.1551205,131.9321754,cafe,,,,,
43.1485277,131.9164887,education,Вечерняя (сменная) школа №18,,,,
43.0944319,131.8949089,education,Вечерняя (сменная) школа №7,,,,
43.0929583,131.8625515,education,Вечерняя (сменная) школа №2,,,,
43.1177437,131.8822936,education,Открытая (сменная) школа №2,,,,
43.1202666,131.8898932,education,Детский сад №1,,,,
43.0941718,131.8598872,education,Детский сад №25,,,,
43.1020621,131.8632514,education,Детский сад №110,,,,
43.1176222,131.8929778,nightclub,BSB,,,,
43.1178457,131.8924773,medics,Детская стоматологическая поликлиника,,,,
43.115923,131.8874308,cafe,Отдел культуры,,,,
43.1089328,131.8779036,medics,Приморский центр парадонтологии,,,,
43.1179942,131.8906196,atm,,,Росбанк,,
43.1923204,132.1110057,goverment,Полиция,,,,
43.1964883,132.1088084,goverment,Стационарный пост ДПС,,,,
43.1120572,131.9342785,atm,,,Банк ВТБ (ПАО),,
43.1146088,131.8921502,atm,,,Банк Приморье,,
43.1962408,132.1211185,cafe,Бек,,,,
43.1960233,132.1192127,cafe,Санья,,,,
43.1954138,132.1165669,cafe,Шах,,,,
43.1952875,132.1163202,fast_food,Шашлык,,,,
43.1953471,132.1163909,fast_food,Шашлык,,,,
43.1948049,132.1120362,atm,,,Банк Приморье,,
43.19642,132.12396,cafe,Арарат,,,,
43.1962261,132.1201376,cafe,Дбин,,,,
43.1954876,132.116807,cafe,Дикая роза,,,,
43.1970245,132.1269943,cafe,Марина,,,,
43.1945216,132.1134101,facility,,,,,
43.1946433,132.1138417,facility,,,,,
43.1948762,132.1122722,facility,,,,,
43.1972118,132.1284497,facility,,,,,
43.0985805,131.9034217,bank,Сбербанк,,"ОАО ""Сбербанк России""",,
43.0997879,131.904926,pharmacy,Аптека,,,,
43.1008497,131.9409942,pharmacy,Аптечный пункт,,,,
43.10129,131.9424168,car_wash,,,,,
43.1199864,131.8836003,cafe,,,,,
43.1171143,131.8861801,bank,,,Home Credit,,
43.120292,131.88514,restaurant,Лемончелло,,,,
43.1188046,131.8828872,pharmacy,,,,,
43.1198536,131.8835502,bank,,,Азиатско-Тихоокеанский банк,,
43.1152681,131.9023938,restaurant,Republic,,,,
43.1129836,131.9155451,bank,Приморье,,,,
43.0852626,131.9636471,medics,Приморский центр микрохирургии глаза,,,,
43.0925651,131.8587396,goverment,"РЭУ ""У Порта""",,"УК ""Эгершельд""",,
43.1025458,131.8691,alco,Ганс,,,,
43.0983832,131.8622378,atm,,,Банк Приморье,,
43.1257018,131.8896708,medics,George Dental Group,,,,
43.1510479,131.9070165,bank,Восточный Экспресс Банк,,,,
43.1548804,131.9113888,bank,Восточный Экспресс Банк,,,,
43.1570298,131.9107567,bank,МТС Банк,,,,
43.0923586,131.9169089,medics,,,,,
43.1095651,131.8788948,goverment,Паллада,,"УК ""Эгершельд""",,
43.1186282,131.8923118,cafe,Boun Apetito,,,,
43.1186793,131.892421,car_wash,Paradise,,,,
43.1178537,131.8865881,bank,,,СКВ-Банк,,
43.1193262,131.8925406,medics,,,,,
43.1165136,131.8822736,bank,,,Приморье,,
43.1152228,131.9097948,cafe,Apriory,,,,
43.1151445,131.9100523,pharmacy,Аптека,,,,
43.1164717,131.902944,vehicle_ramp,,,,,
43.1157831,131.9012432,facility,,,,,
43.1158281,131.9014229,facility,,,,,
43.1170076,131.9051111,facility,,,,,
43.1170628,131.9052996,facility,,,,,
43.1171393,131.9052773,facility,,,,,
43.1109131,131.9362079,goverment,Милиция,,,,
43.112301,131.9246784,post_box,,,Почта России,,
43.1165623,131.8882557,bank,Газпромбанк,,,,
43.1237429,131.887714,medics,Травмпункт №1,,,,
43.1698955,131.9185689,medics,Травмпункт №3,,,,
43.1103001,131.8766949,atm,,,Банк Приморье,,
43.1177449,131.8806299,atm,,,Банк Приморье,,
43.1242283,131.8846456,atm,,,Банк Приморье,,
43.127727,131.9390184,atm,,,Банк Приморье,,
43.1520611,131.9086046,atm,,,Банк Приморье,,
43.1535308,131.9089979,atm,,,Банк Приморье,,
43.160241,131.9128193,atm,,,Банк Приморье,,
43.1768675,131.9189641,atm,,,Банк Приморье,,
43.1775811,131.9229261,atm,,,Банк Приморье,,
43.1919316,131.9206098,atm,,,Банк Приморье,,
43.1930143,131.9254203,atm,,,Банк Приморье,,
43.2313574,131.9929573,atm,,,Банк Приморье,,
43.0974786,131.9539529,atm,,,Банк Приморье,,
43.1255708,131.9052823,atm,,,Банк Приморье,,
43.1648636,131.9310155,atm,,,Банк Приморье,,
43.1668825,131.9337814,atm,,,Банк Приморье,,
43.0873094,131.9024118,atm,,,Банк Приморье,,
43.0934066,131.9020403,atm,,,Банк Приморье,,
43.0950737,131.9759215,atm,,,Банк Приморье,,
43.1004433,131.9037793,atm,,,"Банк Приморье, Сбербанк",,
43.1120877,131.9124896,atm,,,Банк Приморье,,
43.1186617,131.9513974,atm,,,Банк Приморье,,
43.1253734,131.9154129,atm,,,Банк Приморье,,
43.1288101,131.8899234,atm,,,Банк Приморье,,
43.1306614,131.889799,atm,,,Банк Приморье,,
43.1451092,131.9131079,atm,,,Банк Приморье,,
43.1455328,131.9098369,atm,,,Банк Приморье,,
43.1489124,131.9113336,atm,,,Банк Приморье,,
43.1706004,131.9099272,atm,,,Банк Приморье,,
43.1106381,131.9619854,atm,,,Банк Приморье,,
43.1109649,131.9354796,atm,,банкомат,ПримСоцБанк,,
43.1116419,131.9374602,atm,,,Банк Приморье,,
43.1152086,131.8770826,atm,,,Банк Приморье,,
43.1171047,131.9604322,atm,,,Банк Приморье,,
43.1236831,131.9234003,atm,,,Банк Приморье,,
43.1295269,131.9174582,atm,,,Банк Приморье,,
43.1331347,131.9125014,atm,,,Банк Приморье,,
43.2244099,131.9933708,atm,,,Банк Приморье,,
43.090113,131.9679579,atm,,,Банк Приморье,,
43.0988377,131.9203625,atm,Банк Приморье,,Банк Приморье,,
43.1049245,131.9377436,atm,,,Банк Приморье,,
43.1154981,131.887796,atm,,,Банк Приморье,,
43.1155988,131.8833628,atm,,,Банк Приморье,,
43.1181373,131.8889598,atm,,,Банк Приморье,,
43.1241278,131.8873654,atm,,,Банк Приморье,,
43.1297218,131.9020139,atm,,,Банк Приморье,,
43.132561,131.9041999,atm,,,Банк Приморье,,
43.1328941,131.898735,atm,,,Банк Приморье,,
43.137066,131.9534297,atm,,,Банк Приморье,,
43.1436116,131.9039361,atm,,,Банк Приморье,,
43.1646695,131.909457,atm,,,Банк Приморье,,
43.1686714,131.921327,atm,,,Банк Приморье,,
43.1697181,131.9343354,atm,,,Банк Приморье,,
43.1725164,131.9385458,atm,,,Банк Приморье,,
43.2001741,131.9205002,atm,,,Банк Приморье,,
43.2363677,132.0114234,atm,,,Банк Приморье,,
43.0979357,131.9453918,atm,,,Банк Приморье,,
43.0981964,131.9033141,atm,,,Банк Приморье,,
43.1012075,131.9522247,atm,,,Банк Приморье,,
43.1643278,131.9094044,atm,,,Банк Приморье,,
43.1699439,131.9186528,medics,"Стоматология ""Самсон""",,,,
43.1822421,131.9140942,veterinary,Ника,,,,
43.0960219,131.8616587,cafe,Цзян-Нань,,,,
43.1207176,131.9449944,cafe,Кураж,,,,
43.132644,131.9071984,post_office,Владивосток 690002,,АО «Почта России»,Почта России,ru:Почта России
43.1052528,131.8730055,post_office,Владивосток 690003,,АО «Почта России»,Почта России,ru:Почта России
43.0903992,131.9486838,post_office,Владивосток 690011,,АО «Почта России»,Почта России,ru:Почта России
43.1122247,131.8806656,post_office,Владивосток 690007,,АО «Почта России»,Почта России,ru:Почта России
43.0976818,131.9056311,post_office,Владивосток 690021,,АО «Почта России»,Почта России,ru:Почта России
43.1906784,131.9239006,post_office,Владивосток 690022,,АО «Почта России»,Почта России,ru:Почта России
43.2339673,132.0197831,post_office,Владивосток 690024,,АО «Почта России»,Почта России,ru:Почта России
43.2404174,132.02074,post_office,Владивосток 690025,,АО «Почта России»,Почта России,ru:Почта России
43.1597816,131.9137635,post_office,Владивосток 690033,,АО «Почта России»,Почта России,ru:Почта России
43.1054986,131.9432466,post_office,Владивосток 690034,,АО «Почта России»,Почта России,ru:Почта России
43.1010112,131.9156426,post_office,Владивосток 690035,,АО «Почта России»,Почта России,ru:Почта России
43.1257997,131.9447886,post_office,Владивосток 690037,,АО «Почта России»,Почта России,ru:Почта России
43.1663231,131.9040786,post_office,Владивосток 690039,,АО «Почта России»,Почта России,ru:Почта России
43.217603,131.9536373,post_office,Владивосток 690041,,АО «Почта России»,Почта России,ru:Почта России
43.129756,132.014892,post_office,Владивосток 690042,,АО «Почта России»,Почта России,ru:Почта России
43.1552073,131.911553,post_office,Владивосток 690048,,АО «Почта России»,Почта России,ru:Почта России
43.1700928,131.9323679,post_office,Владивосток 690105,,АО «Почта России»,Почта России,ru:Почта России
43.1275428,131.8998859,post_office,Владивосток 690106,,АО «Почта России»,Почта России,ru:Почта России
43.2085535,132.1484901,post_office,Владивосток 690108,,АО «Почта России»,Почта России,ru:Почта России
43.1138533,131.9607397,post_office,Владивосток 690109,,АО «Почта России»,Почта России,ru:Почта России
43.2802461,132.0501528,post_office,Владивосток 690054,,АО «Почта России»,Почта России,ru:Почта России
43.1453887,131.9071866,post_office,Владивосток 690062,,АО «Почта России»,Почта России,ru:Почта России
43.0875658,131.9015555,post_office,Владивосток 690063,,АО «Почта России»,Почта России,ru:Почта России
43.1179268,131.9331018,post_office,Владивосток 690066,,АО «Почта России»,Почта России,ru:Почта России
43.1735651,131.9123695,post_office,Владивосток 690068,,АО «Почта России»,Почта России,ru:Почта России
43.1714251,131.9178089,post_office,Владивосток 690069,,АО «Почта России»,Почта России,ru:Почта России
43.14949,131.9698497,post_office,Владивосток 690074,,АО «Почта России»,Почта России,ru:Почта России
43.1354408,131.8953275,post_office,Владивосток 690078,,АО «Почта России»,Почта России,ru:Почта России
43.0881588,131.9715701,post_office,Владивосток 690080,,АО «Почта России»,Почта России,ru:Почта России
43.129657,131.9353157,post_office,Владивосток 690087,,АО «Почта России»,Почта России,ru:Почта России
43.1325894,131.9250764,post_office,Владивосток 690088,,АО «Почта России»,Почта России,ru:Почта России
43.1109995,131.8803036,post_office,Владивосток 690090,,АО «Почта России»,Почта России,ru:Почта России
43.1208934,131.8832959,post_office,Владивосток 690090,,АО «Почта России»,Почта России,ru:Почта России
43.0938857,131.9724228,post_office,Владивосток 690092,,АО «Почта России»,Почта России,ru:Почта России
43.1120123,131.8790006,alco,Гутовъ,,,,
43.1173576,131.8826544,atm,,,,,
43.1247509,131.8886639,post_box,,,Почта России,,
43.0926221,131.8620328,medics,Жемчужина,,,,
43.1495345,131.9060469,medics,Жемчуг-Н.В.,,,,
43.1139541,131.917026,cafe,чайный дом по восточному,,,,
43.1181888,131.8861538,pharmacy,Овита,,,,
43.1327846,131.8989037,fast_food,Роял Бургер,,,,
43.1286625,131.8928545,alco,Тринити,,,,
43.0872223,131.9014195,bank,Сбербанк,,Сбербанк России,,
43.0880359,131.9712053,bank,Сбербанк,,Сбербанк России,,
43.1092612,131.8785755,bank,Сбербанк,,Сбербанк России,,
43.1547968,131.9110045,bank,Сбербанк,,Сбербанк России,,
43.1549926,131.9241207,bank,Сбербанк,,Сбербанк России,,
43.17313,131.9159812,bank,Сбербанк,,Сбербанк России,,
43.1013713,131.8990184,restaurant,Семь небес,,,,
43.1020741,131.9225942,bank,Сбербанк,,Сбербанк России,,
43.1273233,131.8930413,bank,Сбербанк,,Сбербанк России,,
43.1329406,131.9071241,bank,Сбербанк,,Сбербанк России,,
43.1510682,131.9104393,bank,Сбербанк,,Сбербанк России,,
43.0938411,131.9044062,bank,Сбербанк,,Сбербанк России,,
43.1052264,131.8718799,bank,Сбербанк,,Сбербанк России,,
43.1133725,131.9608023,bank,Сбербанк,,"ОАО ""Сбербанк России""",,
43.1271152,131.9072516,bank,Сбербанк,,Сбербанк России,,
43.1325719,131.9249487,bank,Сбербанк,,Сбербанк России,,
43.1802609,131.9204735,bank,Сбербанк,,Сбербанк России,,
43.2180797,131.9540283,bank,Сбербанк,,Сбербанк России,,
43.1572717,131.9305829,post_office,Владивосток 690089,,АО «Почта России»,Почта России,ru:Почта России
43.0915733,131.9660577,pharmacy,Аптека экономных людей,,,,
43.0966591,131.9664659,pharmacy,,,,,
43.1138889,131.9170128,medics,Никодент,,,,
43.0940498,131.902192,bank,Росбанк,,,,
43.1050099,131.8714221,atm,Росбанк,,,,
43.1237285,131.9048361,atm,Росбанк,,,,
43.125532,131.8793685,atm,Росбанк,,,,
43.1317254,131.9125982,bank,Росбанк,,,,
43.1509221,131.9062136,bank,Росбанк,,,,
43.1571587,131.9262127,atm,Росбанк,,,,
43.160713,131.9131105,atm,Росбанк,,,,
43.2185992,131.9891175,facility,,,,,
43.2212009,131.9925128,facility,,,,,
43.2232207,131.9929945,facility,,,,,
43.2232344,131.9930019,facility,,,,,
43.2232417,131.9929917,facility,,,,,
43.22337,131.9927501,facility,,,,,
43.2210764,131.9925346,facility,,,,,
43.2210998,131.9924463,facility,,,,,
43.2211185,131.9926069,facility,,,,,
43.2211961,131.9922549,facility,,,,,
43.2212236,131.9923048,facility,,,,,
43.2212429,131.9922956,facility,,,,,
43.2212429,131.9923196,facility,,,,,
43.2212737,131.9923034,facility,,,,,
43.2212831,131.9922521,facility,,,,,
43.2213923,131.9928742,facility,,,,,
43.2214397,131.9927439,facility,,,,,
43.2216322,131.9927976,facility,,,,,
43.2217352,131.9921187,facility,,,,,
43.2217651,131.992845,facility,,,,,
43.2221763,131.9918244,facility,,,,,
43.2232462,131.9929356,facility,,,,,
43.2237248,131.9929542,facility,,,,,
43.2237512,131.9929486,facility,,,,,
43.2237742,131.9929526,facility,,,,,
43.2244299,131.9935351,fast_food,,,,,
43.0982121,131.8620394,pharmacy,Аптека №1,,o'vita,,
43.09829,131.8621135,education,Библиотека № 10,,,,
43.0926549,131.8622118,restaurant,Незабудка,,,,
43.0933486,131.8629703,post_box,,,Почта России,,
43.0959511,131.8622717,bank,,,Примсоцбанк,,
43.0950634,131.8627683,goverment,участковый пункт №22,,,,
43.1095963,131.9399991,fast_food,Андежан,,,,
43.122037,131.90739,cafe,Serebro,,,,
43.1513183,131.9049308,facility,,,,,
43.157441,131.9108298,cafe,Максим,,,,
43.1802742,131.9204208,pharmacy,,,,,
43.2057589,131.9545111,alco,,,,,
43.2057314,131.9545897,cafe,Мечта,,,,
43.2073025,131.9533155,restaurant,Столовая,,,,
43.206049,131.9542634,facility,,,,,
43.206085,131.95407,facility,,,,,
43.2060976,131.9540618,facility,,,,,
43.2071438,131.9535002,nightclub,,,,,
43.1574532,131.9108033,cafe,Максим,,,,
43.1130402,131.9403686,facility,,,,,
43.1295139,131.8929447,atm,,,Сбербанк,,
43.1119209,131.9307583,medics,Медико-социальная реабилитация,,,,
43.1146834,131.8883892,restaurant,Аня и Соня,,,,
43.1121211,131.9202327,bank,,,Восточный,,
43.1328172,131.9059908,facility,,,,,
43.1072025,131.9434834,atm,Росбанк,,,,
43.1643686,131.9058419,cafe,Экспресс,,,,
43.1651582,131.9060247,fast_food,Fast Food,,,,
43.1634336,131.9062142,car_wash,Karcher,,,,
43.1647325,131.9053587,pharmacy,Аптека экономных людей,,,,
43.1634844,131.9063634,medics,Борменталь,Центр похудения,,,
43.163415,131.90628,restaurant,Ханай,,,,
43.1640402,131.9051375,facility,,,,,
43.1643946,131.90608,facility,,,,,
43.1667076,131.9084433,cafe,Republic,,,,
43.1675853,131.9088694,medics,Sona,,,,
43.1667456,131.9086028,pharmacy,Моя аптека,,,,
43.1441105,131.9075269,medics,Гинекология,,,,
43.1219968,131.9043357,cafe,Кым ган сан,,,,
43.1125088,131.9242169,medics,центр Здравие,,,,
43.108874,131.8784321,bank,Банк Приморье,,Банк Приморье,,
43.1754059,131.9331647,cafe,Любимый,больничное небольшое кафе,,,
43.1754127,131.9328824,atm,Росбанк,,,,
43.122284,131.8844143,cafe,Хохлома,,,,
43.1113528,131.8789004,bank,,,ББР Банк,,
43.1222683,131.8844087,atm,,,ББР Банк,,
43.1754245,131.9329147,pharmacy,Ортомед,Ортопедический магазин,,,
43.1754188,131.9334657,vending_machine,Приём платежей,,,,
43.1717583,131.9268242,medics,Приморский краевой онкологический диспансер,,,,
43.2726398,132.0713369,fast_food,Курочка,гриль,,,
43.2815059,132.0642903,cafe,Гулам,,,,
43.2781682,132.0652547,pharmacy,,,,,
43.2846501,132.0669402,car_wash,Автомойка грузовая и легковая,,,,
43.110083,131.9341503,medics,Доктор Тафи,,,,
43.1340075,131.9370986,fast_food,Вкусный STOP,,,,
43.1238685,131.9459142,place_of_worship,Восточная Христианская Церковь,,,,
43.1237423,131.9459548,place_of_worship,Церковь Святой Троицы,,,,
43.1213046,131.9014728,facility,,,,,
43.1120606,131.9214133,education,Филиал детского сада №154,,,,
43.1072625,131.9433172,medics,Гинекологическое отделение,,Городская больница №4,,
43.1330753,131.9165751,atm,,,ТрансКредитБанк,,
43.1108528,131.9359885,bank,Югра,,,,
43.1050158,131.9385762,fast_food,,,,,
43.1166167,131.8827028,cafe,Шоколадница,кофейня,,,
43.1132881,131.9018564,fast_food,Таверна,,,,
43.1132485,131.9018557,facility,,,,,
43.113523,131.9018624,facility,,,,,
43.114487,131.9101663,cafe,Столовая,,,,
43.1090548,131.9378316,car_wash,На луговой,,,,
43.1730329,131.9101389,pharmacy,,,,,
43.172751,131.9095078,pharmacy,,,,,
43.1122634,131.937895,fast_food,Гонконг,шведский стол,,,
43.0985211,131.9197358,pharmacy,Pharma,,,,
43.0995747,131.9219153,fast_food,Stroganoff,,,,
43.099123,131.921742,pharmacy,Монастырёв.рф,,,,
43.0989682,131.92167,education,Профи центр,,,,
43.093418,131.9186903,fast_food,,,,,
43.0933644,131.918197,pharmacy,Надалекс,,,,
43.1228823,131.9382922,medics,ДиаМед,,,,
43.1116015,131.9360693,atm,Сбербанк,,,,
43.1116901,131.936042,bank,Сбербанк,,,,
43.0856599,131.9264187,car_wash,Автомойка,,,,
43.0899954,131.9263089,fuel,Мега Тэк,,,,
43.1116197,131.9371711,facility,,на третьем этаже,,,
43.1076675,131.939676,atm,Сбербанк,с возможностью влржения денег,,,
43.1076515,131.9397271,pharmacy,Аптечный пункт,,,,
43.1173006,131.9538519,facility,,,,,
43.1121065,131.9344721,education,ABC Мир,"группа продлённого дня, детский летний лагерь",,,
43.0991408,131.9408357,telephone,,,,,
43.1686111,131.9348912,car_wash,Небо и земля,супермаркет дисков,,,
43.1685538,131.9350978,pharmacy,,,,,
43.1687433,131.9216752,fast_food,Быстро,,,,
43.1689569,131.9199875,bank,Хоум кредит,,,,
43.1692388,131.9217134,facility,,,,,
43.1692501,131.9218246,fast_food,,,,,
43.1365067,131.9271701,alco,Миллениум,бар бильярд,,,
43.1364034,131.9271402,car_wash,Автомойка №1,,,,
43.1337772,131.9254497,fast_food,Вкусное окошко,,,,
43.1331601,131.9238012,fast_food,Свежая выпечка,,,,
43.1323126,131.8995407,pharmacy,Аптека,,,,
43.1327975,131.8989433,pharmacy,Аптека,,,,
43.1316665,131.8999471,veterinary,Ветаптека №1,,,,
43.1305636,131.9009983,bank,ВТБ,,Банк ВТБ (публичное акционерное общество),ВТБ,
43.1316063,131.8999691,pharmacy,Семейная аптека,,,,
43.1318085,131.8998856,bank,Совкомбанк,,,,
43.1291248,131.9012389,medics,Стоматология,,,,
43.1325689,131.8994034,bank,Хоум кредит,,,,
43.1270912,131.9042608,atm,,,ПримСоцбанк,,
43.1287624,131.901453,atm,,,Сбербанк России,,
43.1307405,131.9009033,atm,,,ВТБ24,,
43.1322605,131.8997342,fast_food,,,,,
43.1223251,131.9045836,cafe,Богема,,,,
43.1199468,131.9045374,fast_food,STOP-LINE,автокафе,,,
43.1190059,131.9074806,fast_food,Snack,,,,
43.1187823,131.9079201,fast_food,,,,,
43.1188867,131.9078574,facility,,,,,
43.1189764,131.9078513,facility,,,,,
43.0988241,131.9393568,alco,ЧиVas,русская кухня,"ООО ""Алмаз""",,
43.1512964,131.9082391,fast_food,Royal Burger,,,,
43.1545252,131.9109385,nightclub,Tokyo sushi club,,,,
43.1531396,131.9096763,pharmacy,Аптека,,,,
43.1514686,131.9087361,atm,ДВБ,,,,
43.153832,131.9102173,education,Детская краевая,,,,
43.1536966,131.9105907,restaurant,Китайская кухня,,,,
43.154124,131.9106478,medics,ПримаМед,,,,
43.1528967,131.9094973,atm,Примсоцбанк,,,,
43.1515123,131.9087702,atm,РосБанк,,,,
43.1533967,131.909887,education,Центральная им. А.П. Чехова,,,,
43.1034653,131.9449186,facility,,,,,
43.1335451,131.8993856,atm,Сбербанк,,Сбербанк,,
43.1453466,131.9136986,pharmacy,Аптека,,,,
43.1632268,131.917107,medics,Асклепий,,,,
43.16322,131.9172054,facility,,,,,
43.1634217,131.9170488,fountain,,,,,
43.1604333,131.9128131,pharmacy,Аптека,,,,
43.133542,131.9356565,medics,Санас,,,,
43.1148873,131.8891851,atm,,,,,
43.1149678,131.8890399,facility,,,,,
43.1073003,131.9462751,facility,,,,,
43.1075937,131.9402953,cafe,Надежда,"Шурпа, Лагман, Манты, Шашлык в тандыре, Самса в тандыре",,,
43.0893077,131.8600023,atm,,,МосОблБанк,,
43.089609,131.8607586,atm,,,Сбербанк,,
43.1137761,131.881409,atm,,,ВТБ24,,
43.0908806,131.8609746,post_box,,,,,
43.0934193,131.8630231,bank,,,Азиатско-Тихоокеанский банк,,
43.1138891,131.8814668,post_box,,,,,
43.1158877,131.9046629,medics,,,Асклепий,,
43.0968732,131.8608187,cafe,,,,,
43.0969796,131.8606977,car_wash,,,,,
43.0923918,131.8611834,medics,Медицинский центр,,,,
43.0936813,131.8632519,fast_food,,,,,
43.0959434,131.8622405,atm,,,ПримСоцБанк,,
43.1033438,131.8704092,bank,,,ДВБанк,,
43.1097734,131.8805745,goverment,,,,,
43.1139202,131.8818068,education,,,,,
43.13242,131.8988595,atm,,,Сбербанк,,
43.119579,131.8807179,cafe,Вишнёвый Сад,,,,
43.1124364,131.8791657,restaurant,Точка суши,,,,
43.1036597,131.8700866,bank,,,Bank of China,,
43.1168365,131.8824495,bank,,,home credit,,
43.1637217,131.9138867,alco,Ганс,,,,
43.1692783,131.9321006,bank,,,Приморье,,
43.1725379,131.9385964,atm,,,Сбербанк,,
43.0983906,131.9526454,car_wash,,,,,
43.1131558,131.9311212,restaurant,matsuri,,,,
43.1215546,131.8922803,medics,имплантс,,,,
43.1123795,131.9365886,fast_food,Куры-Гриль,,,,
43.1123283,131.9356446,car_wash,мойка грузовиков,,,,
43.1110436,131.9361339,atm,,несколько банкоматов в здании,Сбербанк,,
43.1032467,131.8974353,bank,Банк Приморье,,,,
43.111386,131.9346747,medics,Панадента,магазин фурнитуры для мебели,,,
43.1105408,131.9357376,facility,,переносные биокабинки,,,
43.1088404,131.9419122,medics,Отролюкс,Ортопедический салон,,,
43.1077001,131.9396065,fast_food,Via Vai,,,,
43.1069395,131.9433961,facility,,,,,
43.1045183,131.9369557,atm,,,Сбербанк,,
43.1021951,131.9499809,car_wash,,,,,
43.1150217,131.9108669,cafe,Coffee beans,,,,
43.1145286,131.8860745,atm,,,ДальКомБанк,,
43.1146128,131.8862978,facility,,Биотуалеты,,,
43.1152841,131.8888566,bank,Сбербанк,,Сбербанк России,,
43.1117761,131.9372952,atm,,,,,
43.1117863,131.9375574,atm,,,Далтабанк,,
43.1113848,131.9392341,facility,,,,,
43.1228808,131.9048155,fast_food,Coffee machine,,,,
43.1227938,131.9050966,car_wash,Автомойка,,,,
43.121299,131.9030955,education,Автошкола ВГУЭС,,ВГУЭС,,
43.1214121,131.9030285,education,Школа картинга ВГУЭС,,ВГУЭС,,
43.1237265,131.9048949,atm,,,Приморье,,
43.1109577,131.9456617,alco,Хунь-Чунь,кафе-бар,,,
43.1632103,131.9424885,car_wash,,,,,
43.217325,131.9599746,facility,,,,,
43.1670548,131.9403858,fast_food,STROGANOFF,,,,
43.1113859,131.9392341,fast_food,Бургерная,,,,
43.1117944,131.9369741,pharmacy,Рифарм ДВ,,,,
43.1117762,131.937072,atm,,,Азиатско тихоокеанский банк,,
43.1117866,131.9370231,atm,,,ДВБ,,
43.1185523,131.9005322,facility,,,,,
43.1325449,131.9042486,bank,Банк Приморье,,,,
43.1325413,131.9043048,vending_machine,Мой Дельфин,"автомат покупки карты ""Мой дельфин""",Банк Приморье,,
43.1249497,131.8945047,cafe,Булка,,,,
43.1876135,131.984511,facility,Полуразрушенный навес,полог разорван,,,
43.1166312,131.9400968,place_of_worship,,,,,
43.1119787,131.9379359,cafe,,,,,
43.1119759,131.9378972,vending_machine,,,"кинотеатр ""Владивосток""",,
43.1155262,131.9049022,restaurant,Santropez,,,,
43.1804827,131.9141798,cafe,Аполлон,,,,
43.1774815,131.9164963,education,Приморская краевая библиотека для слепых,,,,
43.1754112,131.9138184,pharmacy,ООО НефРос,,,,
43.1743385,131.9168931,cafe,Два грузина,,,,
43.1748077,131.9166885,medics,"Владивостокская детская поликлиника №3, КГБУЗ, филиал",,,,
43.1832118,131.9163203,medics,Краевая детская стоматологическая поликлиника,,,,
43.0965899,131.9495565,facility,,,,,
43.1697322,132.0824841,facility,,,,,
43.1698379,132.0825364,facility,,,,,
43.1704874,132.0841303,facility,,,,,
43.0725262,131.9384663,facility,,,,,
43.1379984,131.8954179,facility,,,,,
43.1452644,131.9522066,cafe,Караван,,,,
43.1158871,131.8859286,atm,,,Сбербанк,,
43.1311933,131.9422323,atm,,,ВТБ,,
43.1311958,131.9422419,atm,,,"ОАО ""Альфа-Банк""",,
43.131207,131.9422582,atm,,,ДВБ,,
43.1312669,131.9421356,pharmacy,,,,,
43.1312521,131.9421024,restaurant,Зойкина квартира,"с 12 до 16 - ""бизнес ланч"" за 350 руб.",,,
43.1314025,131.9421957,cafe,Эстоль,,,,
43.1314179,131.9422127,alco,Эстоль,,,,
43.1314611,131.9423296,facility,,,,,
43.1387864,131.9494466,facility,,,,,
43.1660632,131.9088165,cafe,Рэндвик,,,,
43.1660352,131.9086157,bank,Сбербанк,обслуживание частных клиентов,,,
43.2290912,131.9803701,cafe,Сказки востока,,,,
43.2292593,131.9797715,cafe,Закусочная,,,,
43.1116052,131.9171244,bank,Регио Банк,,,,
43.1135173,131.9403194,facility,,,,,
43.1140931,131.9406629,facility,,,,,
43.1156409,131.9411233,facility,,,,,
43.115648,131.9411361,facility,,,,,
43.190266,131.9815351,facility,,,,,
43.1144227,131.8960876,car_wash,555,"Автомойка, химчистка",,,
43.1118203,131.9381871,medics,"Клиника ""ВитаДизайн""",,,,
43.0975564,131.974427,goverment,Миграционный центр,,,,
43.1005015,131.9497225,bank,Дальневосточный банк,,,,
43.1158146,131.9602199,pharmacy,,,,,
43.120011,131.9591073,pharmacy,,,,,
43.1331588,131.8977763,community_centre,Совет ветеранов,,,,
43.1368508,131.8955821,facility,,,,,
43.1139789,131.9309757,post_box,,,Почта России,,
43.1135836,131.9283868,facility,,,,,
43.1130962,131.9296089,facility,,,,,
43.1131254,131.9290446,facility,,Деревянный сартир,,,
43.1356807,131.8977839,medics,Авиценна +,медицинский центр Авиценна,,,
43.1356901,131.8976595,restaurant,Харбин,,,,
43.1377731,131.8954379,medics,Тафи-диагностика,сеть медицинских лабораторий,,,
43.1357848,131.8957552,facility,,,,,
43.1357887,131.8957231,facility,,,,,
43.1361085,131.8959385,facility,,,,,
43.1326581,131.8977391,medics,MedUnion,лечение в корее,,,
43.1359147,131.8972243,cafe,Алмаз,,,,
43.1348336,131.9052958,facility,,,,,
43.1349422,131.8980395,medics,"ООО ""Вира дент""",,,,
43.1351093,131.8978801,veterinary,доктор Макс,,,,
43.1303401,131.9012998,alco,Tokyo,sushi bar,,,
43.1311741,131.90063,community_centre,Весь мир,образовательный клуб,"Российское отделение ассоциации женщин стран АТР ""ВЛАДА""",,
43.1255084,131.8950746,facility,,,,,
43.101872,131.9394841,community_centre,Дети приморья,некоммерческий детский благотворительный фонд,,,
43.1033921,131.9374656,facility,,,,,
43.1357263,131.8988644,pharmacy,,,,,
43.0943992,131.8971282,cafe,Армянское кафе,,,,
43.0938868,131.8968017,alco,Каравелла,,,,
43.0944241,131.8961971,pharmacy,Семейная аптека,,,,
43.0939111,131.897323,car_wash,,,,,
43.1156268,131.8871214,pharmacy,,,,,
43.114744,131.885564,facility,,,,,
43.1155954,131.8855832,facility,,,,,
43.1164368,131.8969251,restaurant,Крестовый перевал,,,,
43.0935532,131.896113,atm,ДВ Банк,,,,
43.1144718,131.8956722,facility,,,,,
43.0951072,131.9590781,facility,,,,,
43.0943848,131.9603719,facility,,,,,
43.1172061,131.8964115,facility,,,,,
43.0922714,131.9661046,pharmacy,Монастырев,,,,
43.0923513,131.9649319,facility,,,,,
43.0928202,131.9671744,facility,,,,,
43.1190991,131.8897403,atm,,,,Дальневосточный банк (ДВБ),
43.1191083,131.889691,atm,,,,Примсоцбанк,
43.1191165,131.8896448,atm,,,,Сбербанк,
43.1191247,131.8895924,atm,,,,ВТБ24,
43.1150445,131.8950166,cafe,Bistro #8,,,,
43.0958375,131.9749678,medics,Юнилаб,независимая лаборатория,,,
43.0958461,131.9750897,post_box,,,,,
43.0936469,131.9619585,facility,,,,,
43.0951478,131.9682904,goverment,Избирательный участок №604,,,,
43.0951695,131.9683361,community_centre,Орлёнок,Детский клуб,,,
43.0958153,131.9695042,facility,,,,,
43.0910681,131.9669991,atm,,,ПримСоцБанк,ПримСоцБанк,
43.0914185,131.9671834,facility,,,,,
43.0921023,131.9692907,facility,,,,,
43.0954868,131.9690809,medics,Владивостокская поликлинника №6,отделение восстановительного лечения,,,
43.0942159,131.9666686,restaurant,Столовая,,,,
43.094083,131.9666769,facility,,,,,
43.0940976,131.9668281,post_box,,,,,
43.0943281,131.9673372,facility,,,,,
43.0944367,131.9672014,facility,,,,,
43.094488,131.9671698,facility,,,,,
43.0961411,131.9600145,facility,,,,,
43.0944154,131.9603799,facility,,,,,
43.0945444,131.9604597,facility,,,,,
43.0953677,131.969605,medics,Станция скорой медицинской помощи г. Владивостока,Подстанция Тихая,Департамент здравоохранения Приморского края,,
43.1015077,131.9397489,facility,Геодезическая,,,,
43.0962325,131.9588412,facility,,,,,
43.1788479,131.9185435,cafe,Сытый Горыныч,,,,
43.1747321,131.9407998,cafe,Баку,,,,
43.1694821,131.9325215,cafe,Шеньян,,,,
43.1125159,131.8789405,restaurant,Ностальгия,,,,
43.1207877,131.8827194,restaurant,Харбин,,,,
43.1202911,131.8762455,facility,,,,,
43.1212441,131.875797,vending_machine,,,,,
43.1213024,131.8871551,facility,,,,,
43.1242097,131.8756829,facility,,,,,
43.0941451,131.9620147,facility,,,,,
43.0947918,131.9615773,facility,,,,,
43.0943412,131.9673144,facility,,,,,
43.0951589,131.9693461,facility,,,,,
43.0929665,131.9630611,facility,,,,,
43.0943253,131.9567774,medics,Dentium,,,,
43.0916925,131.9583207,facility,,,,,
43.1303085,131.8921055,pharmacy,Монастырёв.рф,,,,
43.1302055,131.8921811,facility,,,,,
43.0921326,131.9728952,alco,Bookmaker hall,,"ООО ""Мелофон""",,
43.0922218,131.973286,cafe,,,,,
43.0919581,131.9716604,fast_food,Минутка,,,,
43.0925148,131.9696301,goverment,Единое социальное окно,,,,
43.0925406,131.9696009,goverment,Учётно-регистрационный центр Владивостока,,,,
43.0904235,131.9673434,medics,Ортомед,Ортопедический салон,,,
43.0903627,131.9667588,pharmacy,Семейная аптека,,,,
43.0899229,131.9670337,pharmacy,,,,,
43.0908694,131.9658988,facility,,,,,
43.0935526,131.8960503,pharmacy,,,,,
43.0953696,131.9770433,cafe,Columbus,интернет кафе,,,
43.0953685,131.9771075,cafe,Кухня по восточному,,,,
43.0947753,131.9769149,facility,,,,,
43.0949609,131.9771374,facility,,,,,
43.0928611,131.9758702,facility,,,,,
43.0924815,131.9743683,facility,,,,,
43.0926723,131.9720585,facility,,,,,
43.1005165,131.9437994,facility,,,,,
43.1005637,131.9438475,facility,,,,,
43.0994616,131.9449351,facility,,,,,
43.0988107,131.9475309,facility,,,,,
43.1167138,131.8827671,bank,ВТБ,,Банк ВТБ (публичное акционерное общество),ВТБ,
43.0937966,131.9509595,alco,Анталия,,,,
43.0938811,131.9509981,cafe,Анталия,,,,
43.0940948,131.9508538,pharmacy,,,,,
43.0936317,131.9526821,facility,,,,,
43.0927425,131.9538388,facility,,,,,
43.1220012,131.8902917,cafe,,,,,
43.094636,131.958802,pharmacy,Надалекс,,"ООО ""Надалекс МЕД""",,
43.093705,131.9577107,facility,,,,,
43.0945592,131.9601511,facility,,,,,
43.086278,131.955359,facility,,,,,
43.0862766,131.9551841,facility,,,,,
43.0863417,131.9551881,facility,,,,,
43.0863426,131.9553591,facility,,,,,
43.0863641,131.9551888,facility,,,,,
43.0863631,131.9553468,facility,,,,,
43.0864411,131.9551833,facility,,,,,
43.0864421,131.9553441,facility,,,,,
43.0868892,131.9547613,facility,,,,,
43.0892447,131.9605066,facility,,,,,
43.08667,131.9571475,facility,,,,,
43.1162809,131.9109332,facility,,,,,
43.1001858,131.9509968,facility,,,,,
43.0988726,131.9529363,fast_food,Cremesso,,,,
43.0997548,131.9513032,medics,Владивостокская стоматологическая поликлинника №2,Детское отделение,,,
43.0979021,131.9525362,cafe,Кафешка,,,,
43.098599,131.95205,facility,,,,,
43.0976666,131.9539491,vending_machine,,Мой дельфин,,,
43.0970556,131.9546582,car_wash,,,777,,
43.0975583,131.9544529,post_box,,,,,
43.0971831,131.9562061,cafe,,,,,
43.0972357,131.9587809,atm,,,Росбанк,Росбанк,
43.1146614,131.8950586,education,Cпециальная (коррекционная) школа-интернат №1,,,,
43.1148666,131.8946785,medics,"Приморское краевое бюро судебно-медицинской экспертизы, ГБУЗ",,,,
43.1676255,131.9282087,medics,"Владивостокская детская поликлиника №1, КГБУЗ",,,,
43.1677072,131.9290066,facility,,,,,
43.0962827,131.9572008,facility,,,,,
43.0937982,131.9630948,facility,,,,,
43.0940141,131.9639985,facility,,,,,
43.0910999,131.9774284,facility,,,,,
43.0922771,131.9749045,facility,,,,,
43.0922641,131.9718581,cafe,Жасмин,,,,
43.0937488,131.9748887,facility,,,,,
43.0933057,131.973822,facility,,,,,
43.0931705,131.9715373,facility,,,,,
43.1158522,131.9095542,facility,,,,,
43.0908454,131.971978,medics,Здравница,Мед. центр,,,
43.0908072,131.9718303,medics,Ортолюкс,ортопедический салон,,,
43.090802,131.969945,atm,,,ДВБ,Дальневосточный банк,
43.0898124,131.9667712,fast_food,Bistrot,,,,
43.0898979,131.9668811,facility,,,,,
43.0899058,131.9669092,facility,,,,,
43.0897964,131.9665006,fast_food,Выпечка гриль,,,,
43.0897522,131.9663564,cafe,Урарту,,,,
43.0921335,131.9749739,facility,,,,,
43.0970038,131.9590867,facility,,,,,
43.0970401,131.9590772,facility,,,,,
43.0952119,131.9596914,vehicle_ramp,,,,,
43.0918397,131.9611506,car_wash,,,,,
43.0910278,131.9598363,alco,Ёрш,,,,
43.0912764,131.9598729,facility,,,,,
43.0912825,131.9599249,pharmacy,,,ООО Здравье,,
43.0915506,131.9598881,post_box,,,,,
43.091583,131.9594783,facility,,,,,
43.0789646,131.8423581,car_rental,Прокат водных мотоциклов,,,,
43.0948527,131.9766199,facility,,,,,
43.0954927,131.977942,facility,,,,,
43.095498,131.9781026,facility,,,,,
43.0938233,131.972366,post_box,,,Почта России,,
43.1795784,131.917824,culture,Центр современного искусства ЗАРЯ,,,,
43.1176963,131.8859918,cafe,Столовая,,,,
43.1187687,131.8892208,medics,Адреналин,,,,
43.0940607,131.9705751,medics,Владивостокская поликлинника №6,,,,
43.0951669,131.9739128,facility,,,,,
43.0954204,131.9746271,facility,,,,,
43.0938044,131.8962162,pharmacy,,,,,
43.0993352,131.9408582,atm,,,Сбербанк,,
43.1147368,131.9097104,medics,Асклепий,,,,
43.114306,131.9087185,bank,Морской банк,,,,
43.1142757,131.9086066,alco,Дублин,,,,
43.1775116,131.9320586,facility,,,,,
43.1117348,131.9372299,atm,Росбанк,,,,
43.1143461,131.9456707,atm,,,,МДМ Банк,
43.1007434,131.9490985,bank,ПримСоцБанк,,,,
43.1151552,131.9093547,medics,,,,,
43.0927463,131.8627661,facility,,,,,
43.1696168,131.922363,facility,,,,,
43.1146486,131.9221694,education,Библиотека №22,,,,
43.1510533,131.9086939,pharmacy,Семейная,,,,
43.1488624,131.911372,atm,,,,Сбербанк,
43.237517,132.0485886,fuel,АГЗС,,,,
43.1099038,131.8771243,restaurant,,,,,
43.1187,131.8801736,alco,Мумий Тролль,,,,
43.1713943,131.9341861,medics,Carat V,,,,
43.172412,131.9355908,cafe,Метеор,,,,
43.088924,131.972719,medics,Приморский центр медосмотров,,,,
43.1001086,131.9506122,medics,Владивостокская поликлиника №6,,,,
43.1683377,131.9365253,parking_entrance,Парковка ТЦ Багратион,,,,
43.0979372,131.9522262,medics,,,,,
43.1097567,131.9368331,fast_food,Smile cafe,,,,
43.1101736,131.9380715,facility,,,,,
43.0973172,131.9587971,vending_machine,Мой дельфин,,,,
43.0973143,131.9587656,vending_machine,Экспресс оплата,,,,
43.0972541,131.9587805,atm,,,ДВБ,ДВБ,
43.0972728,131.95878,atm,,,Сбербанк,Сбербанк,
43.0972915,131.95878,atm,,,Приморье,Приморье,
43.096627,131.9596183,community_centre,Старт,детский шахматный клуб ДЮСШ,,,
43.0970942,131.9649164,cafe,,,,,
43.1522962,131.9104463,cafe,,,,,
43.2080546,132.0011515,facility,,"стол, очаг, ствол дерева как лавочка",,,
43.2084794,131.9992123,facility,,с порванными тканевыми стенками,,,
43.1170464,131.8899086,facility,,,,,
43.109928,131.9230899,cafe,Для своих,,Вл-Март,,
43.1002819,131.9503768,medics,Флюрографический кабинет,,,,
43.1194802,131.8906485,car_rental,,,,,
43.0896143,131.8607344,atm,,,Росбанк,,
43.0896208,131.86071,atm,,,Примсоцбанк,,
43.0896264,131.8606868,atm,,,ВТБ24,,
43.0896321,131.8606547,cafe,,,,,
43.1170729,131.9092139,facility,,,,,
43.1167968,131.9104424,facility,,,,,
43.1170699,131.911047,facility,,,,,
43.1980029,131.9247604,atm,,,Сбербанк,,
43.2014832,131.9271529,atm,,,Сбербанк,,
43.1920897,131.9206191,education,Центральная научная библиотека ДВО РАН,,,,
43.1337611,131.9001489,atm,Азиатско-тихоокеанский банк,,,,
43.1329415,131.9041781,bank,Альфа-Банк,,"АО ""Альфа-Банк""",,ru:Альфа-банк
43.1329299,131.9039958,bank,ВТБ Банк Москвы,,,ВТБ Банк Москвы,ru:Банк Москвы
43.1324152,131.9119927,facility,,,,,
43.1331867,131.8995372,facility,,,,,
43.1296761,131.9003029,facility,"Сбор пластика, стекла, алюминия (контейнеры)",,,,
43.1273084,131.8965486,facility,"Сбор пластика, стекла, алюминия (контейнеры)",,,,
43.1327684,131.8981954,fast_food,Royal burger,,,,
43.133523,131.9004681,cafe,Товуз,,,,
43.1335788,131.899634,cafe,Brioche,,,,
43.1333669,131.9025235,pharmacy,Ovita,,,,
43.1337384,131.9026075,medics,Аист,,,,
43.1334339,131.8984963,community_centre,Семицветик,детский центр,,,
43.1333941,131.9022784,goverment,УМВД РОссии по приморскому краю,,,,
43.134275,131.9005375,facility,,,,,
43.1294901,131.8890033,cafe,Кот,,,,
43.1304571,131.9091531,fast_food,Route big city food 60,,,,
43.1302199,131.9107305,education,Библиотека имени Горького,,,,
43.1299893,131.9122475,cafe,Сад,,,,
43.1294745,131.9119216,medics,Студия эстетической медицины,,,,
43.1354298,131.9009929,medics,Тридент,,,,
43.1312654,131.9124323,pharmacy,,,,,
43.1175234,131.891628,cafe,Moloko&Med,,,,
43.1308476,131.9123786,cafe,bonus club,интернет кафе,,,
43.1177316,131.8925506,restaurant,Palau Fish,,,,
43.1153307,131.9345937,facility,,,,,
43.135227,131.903132,pharmacy,Здоровье+,,,,
43.1352547,131.9046501,atm,,,ВТБ24,ВТБ24,
43.1352619,131.9033849,facility,,,,,
43.1358594,131.8995824,atm,,,,Росбанк,
43.1182666,131.9089758,fast_food,,,,,
43.1199959,131.9089738,facility,Приём металла,,,,
43.1232159,131.8812124,medics,МРТ-эксперт,,МРТ-Эксперт Приморье,,
43.1203203,131.885351,cafe,limoncello,,,,
43.1140912,131.8810403,cafe,Стооловая,,,,
43.1178176,131.8865116,cafe,Мульткафе Deja Vu,,,,
43.1176829,131.8874078,fast_food,Столовая №1,,,,
43.1142868,131.9323071,medics,центр мануальной терапии и детской медицинской реабилитации,,,,
43.1163268,131.9293207,medics,,,,,
43.1944502,131.9238909,facility,,,,,
43.1158465,131.8821379,restaurant,DAB (Drinks and Burgers),,,,
43.0985272,131.9317693,education,Библиотека № 14,,,,
43.117804,131.8818151,cafe,Ух ты блин,,,,
43.117352,131.8879372,cafe,Melange cafe,,,,
43.1288777,131.8918364,atm,,,Сбербанк,,
43.1292974,131.8928942,atm,,,Росбанк,,
43.1134237,131.9110861,nightclub,Grammy,,,,
43.1138828,131.9116113,facility,,,,,
43.1183468,131.882833,fast_food,Бургер Кинг,,,,ru:Burger King
43.1147756,131.8913456,atm,,,Морской банк,,
43.114777,131.8913169,atm,,,Росбанк,,
43.1147879,131.8913316,atm,,,Сбербанк,,
43.131674,131.9363421,alco,Аигюнь,,,,
43.1195758,131.886346,bank,Номос региобанк,,,,
43.1304581,131.937974,pharmacy,,,,,
43.1133434,131.9200491,facility,,,УВД,,
43.1125496,131.91992,medics,Детская Стоматология,,,,
43.1130232,131.8808705,alco,Караоке Zvook,,,,
43.1168874,131.880258,alco,Мюнхен,,,,
43.1174634,131.8837022,bank,Альфа-Банк,,"АО ""Альфа-Банк""",,ru:Альфа-банк
43.1143665,131.8931783,bank,Открытие,,,,
43.1282922,131.8973362,pharmacy,Здоровье,,"Медицинский центр ""Здоровье""",,
43.1143096,131.8934615,cafe,Пекарня Мишеля,,,,
43.1119668,131.8801674,cafe,Золотой феникс,,,,
43.1192648,131.8821203,restaurant,Tokyo Kawaii,,,,
43.1115833,131.9172258,medics,Центр патологии мочеиспускания,оф. 308,,,
43.1025565,131.9399636,pharmacy,Семейная аптека,,,,
43.1023088,131.9394343,facility,,,бытовые отходы,,
43.1017507,131.9398196,facility,,,,,
43.1022885,131.9394154,facility,,,,,
43.1020066,131.9396322,facility,,,,,
43.1101331,131.936142,fast_food,,Питстоп,,,
43.1027899,131.940113,facility,,,,,
43.1020881,131.9394331,facility,,,,,
43.1020505,131.9395255,facility,,,,,
43.1102329,131.9356651,fast_food,,Киоск быстрой еды,,,
43.1176013,131.8814086,cafe,Файв о клок,,,,
43.113201,131.9520848,alco,Шар удачи,,,,
43.1589649,131.918127,pharmacy,Семейная аптека,,,,
43.1014241,131.9405621,medics,Наркологический диспансер,,,,
43.1514897,131.9088751,cafe,Барон,,,,
43.1198692,131.8811694,car_rental,"Прокат автомобилей ""Старт""",,,,
43.1130249,131.9306056,education,Вершина Монтессори,,,,
43.1244353,131.9224875,medics,Клиника Вера,,,,
43.1257304,131.9213288,atm,Сбербанк,,,,
43.125754,131.9212959,bank,Сбербанк,,,,
43.116326,131.8823418,facility,,,Подземный переход,,
43.1255123,131.922486,place_of_worship,Церковь христиан адвентистов седьмого дня,,,,
43.124805,131.9229977,cafe,Золотой лотос,,,,
43.1009245,131.9229402,car_wash,Энигма,,,,
43.1169081,131.8801465,alco,Селфи,,,,
43.0895464,131.9736305,facility,,,,,
43.0895797,131.9736855,facility,,,,,
43.0896248,131.9736479,facility,,,,,
43.20103,132.030088,facility,,очаг из камней,,,
43.1007417,131.9042467,cafe,Алмаз,,,,
43.1007793,131.9042545,car_wash,,,,,
43.1191634,131.881199,cafe,Меланж,,,,
43.1135989,131.9109301,nightclub,Ретро,,,,
43.1141008,131.895092,telephone,,,Ростелеком,,
43.1180188,131.8858336,atm,Альфа-Банк,,,,
43.1129172,131.8809972,cafe,Столовая,,,,
43.1094256,131.9445478,pharmacy,,,,,
43.1304845,131.932425,facility,,,,,
43.1212043,131.8764298,community_centre,Дом Бабочек ВОСТОРГ,,,,
43.1002659,131.9038165,atm,Сбербанк,,,,
43.100341,131.9038145,atm,Газпромбанк,,,,
43.1136192,131.9062742,facility,,,,,
43.1134587,131.906157,facility,,,,,
43.1136344,131.9062403,facility,,,,,
43.1134283,131.9059616,facility,,,,,
43.1135326,131.9062264,facility,,,,,
43.1133968,131.9060942,facility,,,,,
43.1112818,131.8802053,atm,Росбанк,,Росбанк,,
43.1275101,131.9242669,facility,,,,,
43.127849,131.9232652,facility,,,,,
43.1094296,131.8769391,pharmacy,Монастырëв,,,,
43.1106922,131.9371641,fast_food,,,,,
43.115811,131.887244,cafe,Кофеин,"Вкусно, уютно",,,
43.1157116,131.8870055,vending_machine,Жетоны для стоянки,,,,
43.0994396,131.9271441,medics,Альфест,,,,
43.0935524,131.9166586,alco,Пиво у Andrew,,,,
43.0989451,131.9133974,cafe,Шашлык,,,,
43.0961467,131.9013475,goverment,Пожарная часть № 4,,,,
43.0997118,131.9193503,cafe,Золотой дракон,,,,
43.0938154,131.9162913,pharmacy,Семейная аптека,,,,
43.0931382,131.9166231,alco,Хижина Патрика,,,,
43.0939472,131.9136027,cafe,Санья,,,,
43.0974632,131.9190126,medics,Владивостокская детская поликлиника №4,,,,
43.0920466,131.9111468,fuel,,,,,
43.0904462,131.9145545,veterinary,,,,,
43.101244,131.9124186,medics,Детская поликлиника №10,,,,
43.09897,131.920373,pharmacy,ГосАптека,,,,
43.1284409,131.8928245,medics,Доктор Тафи,,,,
43.1283478,131.8934696,pharmacy,Моя Аптека,,,,
43.1563041,131.9229093,cafe,,,,,
43.1263044,131.9168061,facility,,,,,
43.0997299,131.9049602,medics,,,,,
43.0912946,131.9171589,pharmacy,Аптека,,,,
43.085831,131.8942091,goverment,,,,,
43.101958,131.9328875,pharmacy,Оптика,,,,
43.0934877,131.9155698,medics,,,,,
43.1139414,131.9139766,post_office,СДЕК,,,,
43.1282598,131.8918682,cafe,Ганга,,,,
43.112497,131.9414931,cafe,Кыргызстан,,,,
43.1125128,131.9421108,cafe,Старый фаэтон,,,,
43.1125193,131.941907,car_wash,,,,,
43.1219226,131.9538688,facility,,,,,
43.1811728,131.9204566,fast_food,Drive-through fastfood,,,,
43.1172492,131.8796272,alco,Moonshine,,,,
43.1173011,131.8800743,alco,Downtown Project,,,,
43.1193204,131.8820562,restaurant,Korea House,,,,
43.1605483,131.9127948,fast_food,grizly grill,,,,
43.0933424,131.907971,pharmacy,,,,,
43.1289918,131.9048717,education,Всероссийское общество автомобилистов,,,,
43.208103,132.0770233,community_centre,"""Комета""",,,,
43.1660045,131.9084941,restaurant,Вьетнам-Китай,,,,
43.102591,131.8918467,car_rental,Limoclub,,,,
43.1188996,131.8868455,cafe,Пироговая,,,,
43.1608126,131.9131999,fast_food,,2-й этаж,,,
43.174001,131.9207436,facility,,,,,
43.1728297,131.9201689,pharmacy,,,,,
43.1027929,131.915827,parking_entrance,,,,,
43.1670726,131.9131797,atm,,,Сбербанк,,
43.1642981,131.9056923,atm,,,Сбербанк,,
43.1660607,131.908764,atm,,,Мособлбанк,,
43.1623427,131.9428053,fast_food,Беляшка,,,,
43.2251224,131.9881031,atm,,,Сбербанк,,
43.1965521,132.1232706,cafe,Кафе Морской Замок,,,,
43.1165097,131.8810697,atm,,,ВТБ 24,,
43.0995991,131.867392,fuel,,,,,
43.0987941,131.8634677,fuel,,,Роснефть,,
43.0819381,131.8522808,fuel,ННК,,ННК,ННК,
43.1315653,131.8995477,facility,,,,,
43.1308886,131.9000399,medics,,,,,
43.2252026,131.9891717,atm,,,Сбербанк,,
43.1183911,131.8828076,atm,,,Банк Приморье,,
43.2079157,132.1413444,fuel,,,,,
43.1736952,131.9177574,atm,,,Сбербанк,,
43.1220014,131.9532206,fast_food,Куры гриль,,,,
43.1157059,131.9006212,fountain,,,,,
43.1189601,131.9555449,vending_machine,,,,,
43.111872,131.9375741,vending_machine,,,,,
43.1747935,131.9168481,pharmacy,Госаптека,,,,
43.2271272,132.2171149,facility,,,,,
43.1210031,131.9533858,facility,,,,,
43.1203431,131.8872932,bank,Россельхозбанк,,,,
43.1160495,131.9050561,bank,Россельхозбанк,,,,
43.1186539,131.9512529,pharmacy,,,,,
43.111876,131.9378893,atm,,,Сбербанк,,
43.1188587,131.9512512,atm,,,Сбербанк,,
43.1736594,131.9185198,facility,,,,,
43.1234829,131.9225103,fuel,НК Альянс,,,,
43.1187218,131.9512203,alco,Пивко,,,,
43.1188903,131.9512564,atm,,,Росбанк,,
43.1079069,131.950247,facility,,,,,
43.1153916,131.9353339,facility,,,,,
43.1279538,131.939321,pharmacy,,,,,
43.1009782,131.9226247,car_rental,Автопрокат,,,,
43.1648488,131.9059023,medics,,,,,
43.1227591,131.9381315,medics,Эксперт,медицинская лаборатория,,,
43.1319163,131.9362242,car_wash,,,,,
43.1307948,131.9375431,cafe,Вьетнам,,,,
43.1306892,131.9377385,pharmacy,,,,,
43.1741281,131.9179095,post_box,,,Почта России,,
43.1536473,131.9526261,car_wash,Автомойка легкового и грузового,,,,
43.137584,131.9154671,facility,,,,,
43.1144709,131.9128834,medics,Евро - стом,,,,
43.1213793,131.8779732,restaurant,Zuma,,,,
43.1360218,131.89376,facility,,,,,
43.1360563,131.8939328,facility,,,,,
43.1360868,131.8940838,facility,,,,,
43.1361134,131.8942457,facility,,,,,
43.1800287,131.9114049,facility,,,,,
43.1579813,131.9398728,fuel,Роснефть,,,Роснефть,
43.1576501,131.9408231,fuel,Роснефть,,,Роснефть,
43.2329796,132.0294456,fuel,НК Альянс,,,,
43.1392533,131.9482438,fast_food,Кофемашина,,,,
43.1191575,131.9325003,atm,,,Сбербанк,,
43.128243,131.8919472,cafe,Arte,,,,
43.1580144,131.9192634,medics,Поликлиника,,,,
43.1587092,131.9173183,place_of_worship,,,,,
43.1606784,131.9130982,atm,,,Сбербанк,,
43.1615671,131.9131569,restaurant,Чайхона Хлопок,,,,
43.1566709,131.923809,atm,,,Сбербанк,,
43.21251,131.9506823,atm,,,Сбербанк,,
43.212547,131.9506609,atm,,,Восточный банк,,
43.2125783,131.9506377,atm,,,Газпромбанк,,
43.2126152,131.9506055,atm,,,ВТБ24,,
43.1169319,131.8852902,cafe,Republic,,,,
43.0930479,131.979927,fuel,,,,,
43.147174,131.9052862,fuel,HHK,,,,
43.1170084,131.8796051,fast_food,8 минут,,,,
43.0965951,131.9565813,fuel,Бензо,,,,
43.1042353,131.9819539,fuel,НК Альянс,,,,
43.1042625,131.9400033,facility,,,,,
43.1044908,131.9368727,bank,Восточный экспресс банк,,,,
43.1000006,131.9614349,fuel,Манойл,,,,
43.1166312,131.8781139,atm,,,Сбербанк,,
43.2012613,131.9507391,fuel,,,,,
43.1588948,131.9463384,fuel,НК Альянс,,,,
43.1617457,131.9213099,fuel,,,,,
43.1607233,131.9184381,fuel,,,,,
43.1604688,131.9116098,fuel,,,,,
43.175728,131.9395117,fuel,,,,,
43.0916808,131.9266653,fuel,Роснефть,,,,
43.0845821,131.9078768,fuel,,,,,
43.0907356,131.884062,fuel,,,,,
43.0939284,131.8983353,fuel,,,,,
43.101934,131.9127271,fuel,,,,,
43.1044974,131.9004687,fuel,,,,,
43.1204881,131.9302644,fuel,,,,,
43.1150485,131.9036463,fuel,НК Альянс,,Альянс,,
43.12503,131.8800027,fuel,BENZO АЗС №6,,BENZO,,
43.1096602,131.9615609,fuel,,,,,
43.0999237,131.9594984,fuel,,,,Бензо,
43.1262587,131.9258044,fuel,Октант,,,,
43.115891,131.9381127,fuel,,,,,
43.1271143,131.9424373,facility,,,,,
43.1574161,131.9403456,car_wash,Митасу,,,,
43.1504774,131.9534726,fuel,,,,,
43.1260278,131.941491,facility,,,,,
43.1260502,131.9414206,facility,,,,,
43.1251205,131.9484562,education,Волна,Муниципальное образовательное учреждение дошкольного образования детей,,,
43.1253897,131.9435983,facility,,,,,
43.1253978,131.9435733,facility,,,,,
43.1254613,131.9434675,medics,Жемчужина,,,,
43.1228535,131.9547902,facility,,,,,
43.1225618,131.9539762,facility,,,,,
43.12232,131.9517928,facility,,,,,
43.1228792,131.951247,facility,,,,,
43.1566773,131.9410007,fuel,RS нефть,,,RS Нефть,
43.1566882,131.9413944,car_wash,Мойдодыр,,,,
43.2337069,132.020519,alco,LaNota,,,,
43.1055899,131.9557397,cafe,,,,,
43.1804921,131.9211361,bank,Сбербанк,,,,
43.180197,131.9205625,cafe,City cafe,,,,
43.1111451,131.9112957,fast_food,,,,,
43.1368367,131.8969472,atm,,,Росбанк,,
43.174651,131.9321205,place_of_worship,храм Святого великомученика и целителя Пантелеймона,,,,
43.1162136,131.9078275,medics,Владивостокская поликлинника №2,Отделение восстановительного лечения,,,
43.0989016,131.9216932,education,Профи центр,,,,
43.0988469,131.9216705,medics,Светоч,глазная клиника,,,
43.113738,131.9190492,facility,,,,,
43.113773,131.9190526,facility,,,,,
43.1144667,131.9191255,facility,,,,,
43.2319223,131.9830285,facility,,,,,
43.23185,131.9828099,facility,,,,,
43.2321377,131.9831204,facility,,,,,
43.2322101,131.9830915,facility,,,,,
43.2322863,131.9830741,facility,,,,,
43.2319868,131.9831412,facility,,,,,
43.2311513,131.9796851,fountain,,,,,
43.1048663,131.9557411,medics,Детская поликлиника №2,,,,
43.1376708,131.9776512,fuel,АГЗС АВРОРА,,,,
43.2296056,131.9795383,facility,,,,,
43.2853232,132.0671849,fuel,Роснефть,,Роснефть,Роснефть,
43.0963824,131.9772537,cafe,,,,,
43.1698252,131.9167093,facility,,,,,
43.1441602,131.907496,pharmacy,Монастырёв.рф,,,,
43.1135824,131.9194278,pharmacy,Советская аптека,,,,
43.0968941,131.9679015,medics,Владивостокская поликлиника №6,,,,
43.2318563,132.0070542,medics,Краевой детский фтизиатрический консультативный центр,,,,
43.1175593,131.8901054,medics,Владивостокская стоматологическая поликлиника №1,,,,
43.1696708,131.9166445,facility,,,,,
43.2249697,131.9806252,facility,,,,,
43.2250196,131.9806708,facility,,,,,
43.2250645,131.9806561,facility,,,,,
43.2248486,131.9797911,facility,,,,,
43.2248671,131.9797079,facility,,,,,
43.2249287,131.9796878,facility,,,,,
43.1233103,131.8809246,community_centre,"Танго-клуб ""Нуэстро""",,,,
43.1167436,131.8856507,cafe,Лима,,,,
43.1262607,131.9188158,cafe,Микс,,,,
43.1254954,131.9154877,atm,,,Сбербанк,,
43.1258659,131.9197099,fast_food,Армянская кухня,,,,
43.0982469,131.914777,place_of_worship,"Церковь ""Благая весть""",,,,
43.1303871,131.9003958,cafe,pizza house,,,,
43.1282796,131.8974819,medics,"Здоровье, мед.центр",,,,
43.1187282,131.9086777,fast_food,,,,,
43.1694408,131.9227651,fast_food,,,,,
43.1694908,131.9224872,fountain,,,,,
43.1279651,131.8888839,car_wash,,,,,
43.1297317,131.9107785,fuel,Октант,,Октант,,
43.1277936,131.9054242,cafe,Харбин,,,,
43.1280471,131.9040173,education,Библиотека ТГМУ,,,,
43.1303481,131.8902013,medics,Поликлиника №1,,,,
43.1287391,131.8880455,fast_food,,,,,
43.1291184,131.892343,fast_food,,,,,
43.1293909,131.892284,cafe,Столовая №1,,,,
43.1303158,131.889689,cafe,,,,,
43.1209145,131.9230619,restaurant,Хунчу,Китайский ресторан,,,
43.1115763,131.9620533,medics,Мастер дент+,,,,
43.1299239,131.9402292,fuel,,,,,
43.1297863,131.9407288,fuel,,,,,
43.1317086,131.9400743,medics,Детская поликлиника №7,,,,
43.122652,131.8807973,goverment,Генеральное Консульство Республики Корея,,,,
43.1328879,131.940836,cafe,,,,,
43.1229105,131.9248641,pharmacy,,,,,
43.1163496,131.8947322,facility,,,,,
43.1163716,131.8947107,facility,,,,,
43.0995983,131.9213698,fast_food,,,,,
43.1016722,131.9201025,education,Детский сад №121,,,,
43.1760108,131.9133581,atm,,,Сбербанк,,
43.175514,131.9139328,atm,,,Сбербанк,,
43.1744675,131.9097036,atm,,,Примсоцбанк,,
43.1011968,131.9153604,medics,Краевая клиническая больница №2,Отделение профосмотров,,,
43.131078,131.9319247,medics,Поликлиника №1 терапевтическое отделение,,,,
43.179154,131.9187305,atm,,,Роял Кредит Банк,,
43.1792059,131.9187601,bank,Роял Кредит Банк,,,,
43.1767981,131.9109689,facility,,,,,
43.176769,131.9109827,facility,,,,,
43.1800022,131.9114274,facility,,,,,
43.1154748,131.8818986,facility,,,,,
43.1154428,131.8818335,facility,,,,,
43.1154344,131.8818878,facility,,,,,
43.1154817,131.8818469,facility,,,,,
43.1155205,131.8818585,facility,,,,,
43.1155939,131.8818816,facility,,,,,
43.1155146,131.8819128,facility,,,,,
43.115588,131.8819359,facility,,,,,
43.1152586,131.8817775,facility,,,,,
43.1152527,131.8818318,facility,,,,,
43.1153261,131.8818549,facility,,,,,
43.115332,131.8818006,facility,,,,,
43.127296,131.887032,fountain,Фонтан,,,,
43.1112647,131.8779583,facility,,,,,
43.1113342,131.8779583,facility,,,,,
43.1114047,131.8778953,facility,,,,,
43.1114301,131.8778242,facility,,,,,
43.1152698,131.8747035,fast_food,,,,,
43.1113381,131.8793209,facility,,,,,
43.1138066,131.8822687,cafe,Сацива,,,,
43.1152359,131.9218386,facility,,,,,
43.1054592,131.9432869,cafe,,,,,
43.1145517,131.9207885,facility,,,,,
43.1023215,131.9498241,cafe,ТеремОК,,,,
43.1509538,131.9088892,atm,,,Авангард,,
43.1688795,131.9251034,atm,,,Сбербанк,,
43.1675121,131.9107877,atm,,,Дальневосточный банк,,
43.1186187,131.8843356,atm,,,Сбербанк,,
43.119187,131.8841134,atm,,,Бинбанк,,
43.1201427,131.8871947,atm,,,Примтеркомбанк,,
43.1271587,131.906286,atm,,,Альфа-банк,,
43.1271618,131.9062772,atm,,,Дальневосточный банк,,
43.1271654,131.9062665,atm,,,Сбербанк,,
43.1237336,131.9047129,atm,,,Примсоцбанк,,
43.0850329,131.8538359,fast_food,Coffee Machine,,,,
43.0852685,131.8537997,car_rental,,,,,
43.0854125,131.854438,car_wash,,,,,
43.0853615,131.8541148,cafe,,,,,
43.0797196,131.8418135,fast_food,,,,,
43.0908747,131.8585805,car_wash,,,,,
43.0894448,131.861391,cafe,,,,,
43.087292,131.8583702,fast_food,,,,,
43.0863803,131.8543578,parking_entrance,,Ворота открыты,,,
43.099544,131.863528,cafe,,,,,
43.0992465,131.8633563,cafe,,,,,
43.1566267,131.934275,fast_food,,,,,
43.12098,131.9060229,fast_food,Бензо-кафе,,,,
43.0785238,131.9033315,fuel,,,,,
43.1517416,131.9541974,cafe,,,,,
43.1529961,131.9540383,cafe,,,,,
43.1485637,131.9531157,fast_food,Золотой Бртуч,,,,
43.1136557,131.8879911,atm,,,Газпромбанк,,
43.1040707,131.9044585,cafe,,,,,
43.1038814,131.9054841,cafe,ZaZa-cafe,,,,
43.1647518,131.9127379,fast_food,Время есть,,,,
43.166698,131.9109989,fast_food,8 минут,,,,
43.1318092,131.9091718,facility,,,,,
43.1648574,131.9127784,post_office,Владивосток 690020,,АО «Почта России»,Почта России,ru:Почта России
43.1571955,131.9278885,fast_food,,,,,
43.1512876,131.9336571,car_wash,Автомойка,,,,
43.1128379,131.8914223,facility,,,,,
43.1156842,131.8866915,atm,,,Сбербанк,,
43.1157485,131.8981459,facility,,,,,
43.1182743,131.8792531,restaurant,Супра,,,,
43.114143,131.897458,facility,,,,,
43.1141303,131.8974278,facility,,,,,
43.1141293,131.8973829,facility,,,,,
43.1182582,131.8832858,bank,Почта Банк,,,,
43.0920538,131.9189841,bank,Дальневосточный банк,,,,
43.1170739,131.9297928,veterinary,Благосервис,,,,
43.1149389,131.8886757,facility,,,,,
43.1148156,131.8888306,facility,,,,,
43.1148028,131.8887274,facility,,,,,
43.1148714,131.8883458,facility,,,,,
43.1730346,131.9082539,fuel,,,,,
43.1831782,131.9209112,fast_food,,,,,
43.1172854,131.8891693,medics,,,,,
43.1564751,131.9342692,cafe,Бензо,,,,
43.1253851,131.9469656,education,Детская школа искусств №4,муниципальное бюджетное учреждение дополнительного образования,Администрация города Владивостока управление культуры,,
43.1510645,131.9343236,vehicle_ramp,,,,,
43.1835661,131.9114872,car_wash,,,,,
43.1846614,131.9110487,fast_food,,,,,
43.173743,131.9199277,cafe,,,,,
43.1776235,131.9195648,education,Библиотека №20,,,,
43.1814629,131.9170247,pharmacy,,,,,
43.2311836,132.0157031,cafe,Наеиба,,,,
43.1691158,131.9208703,bank,Восточный банк,,,,
43.1690877,131.9205818,pharmacy,Аптека миницен,,,,
43.1947682,131.9232157,cafe,Буфет,на первом этаже,,,
43.1010541,131.952526,atm,,,Сбербанк,,
43.101089,131.9524348,atm,,,Росбанк,,
43.1010689,131.9523448,atm,,,Банк авангард,,
43.1009741,131.952366,atm,,,Примсоцбанк,,
43.1584966,131.9317082,medics,,,,,
43.2184191,131.9615655,car_wash,,,,,
43.2183409,131.9614568,fast_food,,,,,
43.1218673,131.8923722,medics,Зубная фея,,,,
43.1248087,131.8941197,restaurant,Shilla,,,,
43.1201539,131.887221,bank,Примтеркомбанк,,,,
43.1190063,131.8842089,facility,,,,,
43.1190138,131.8841491,facility,,,,,
43.1193612,131.884368,cafe,Bioleptica,,,,
43.1195216,131.8811428,restaurant,Iz Brasserie,,,,
43.1237436,131.904877,bank,Приморье,,,,
43.1272606,131.9067786,pharmacy,Монастырёв,,,,
43.1508556,131.9090685,bank,Азиатско-Тихоокеанский Банк,,,,
43.1132353,131.9116483,bank,Дальневосточный банк,,,,
43.2196691,131.9614032,medics,Приморский краевой противотуберкулезный диспансер,,,,
43.1329091,131.9352526,facility,,,Даль-Лада,,
43.1330689,131.9351405,car_wash,Даль-Лада,,,Lada,
43.1540592,131.9390946,fast_food,,,,,
43.0881763,131.9239347,fast_food,,,,,
43.1216801,131.9239684,fast_food,Coffee Machine,,,,
43.1250433,131.9214659,car_wash,,,,,
43.2101141,131.9495974,fast_food,,,,,
43.1133469,131.9183738,community_centre,Культурно-развлекательный центр профсоюзов,,,,
43.208767,132.0702302,facility,,,,,
43.10192,131.9446863,pharmacy,Аптека,,,,
43.1189555,131.9245711,fast_food,,,,,
43.2318662,131.9812557,cafe,,,,,
43.1325209,131.8992223,heduction,Колледж технологии и сервиса,,,,
43.1294531,131.9159491,pharmacy,,,,,
43.0784177,131.9656465,fast_food,,,,,
43.1793917,131.9275859,facility,,,,,
43.1631917,131.9060196,fuel,BENZO АЗС №4,,BENZO,,
43.2838163,132.0659255,fuel,НК Альянс,,НК Альянс,НК Альянс,
43.2821339,132.0644771,fuel,МегаТэк,,МегаТэк,,
43.1337247,131.948306,fuel,RS Нефть,,,,
43.1340445,131.9382675,fuel,,,,,
43.1318848,131.9180413,fuel,BENZO АЗС №5,,BENZO,,
43.1009185,131.9057423,fuel,BENZO АЗС №2,,BENZO,,
43.2107319,131.9502881,fuel,BENZO АЗС №10,,BENZO,,
43.1831043,131.9209501,fuel,,,,,
43.1207205,131.9060102,fuel,Бензо,,,,
43.1246938,131.9576522,fuel,,,,,
43.1552953,131.9229843,fuel,,,,,
43.2588494,132.0423558,fuel,,,,,
43.1413412,131.91483,fuel,,,,,
43.0996731,131.920353,fuel,Рейн Ойл,,,,
43.1103199,131.9399147,fuel,CityOil,,,,
43.1389432,131.9491375,fuel,НК Альянс,,,,
43.1283074,131.9046584,fuel,АЗС Альянс,,НК Альянс,,
43.1407071,131.9251459,fuel,,,,,
43.181658,131.9193602,fuel,НК Альянс,,,,
43.1569296,131.9239176,fuel,АЗС Альянс,,,НК Альянс,
43.1186104,131.92216,fuel,НК Альянс,,,,
43.0996884,131.9263293,fuel,ННК,,,,
43.1300982,131.9116885,fuel,,,Октант,,
43.1007934,131.9427061,fuel,Транзитойл,,Транзитойл,,
43.1608884,131.9441269,fuel,ПримОйл,,,,
43.1168039,131.8767534,facility,,,,,
43.115772,131.8754666,alco,RA,,,,
43.1152552,131.8749596,facility,,,,,
43.1012405,131.9183594,medics,Дентал студия,,,,
43.0991037,131.9813468,vehicle_ramp,,,,,
43.0993172,131.981847,facility,,,,,
43.0991204,131.9820495,facility,,,,,
43.1178676,131.8815754,cafe,,,,,
43.1607327,131.913226,atm,,,ВТБ,,
43.1607227,131.9132776,atm,,,Сбербанк,,
43.154218,131.9096527,bank,Альфа-Банк,,"АО ""Альфа-Банк""",,ru:Альфа-банк
43.1576662,131.9278687,bank,Сбербанк,,,,
43.2599416,132.0188681,fountain,,,,,
43.1143691,131.9116815,facility,,,,,
43.1140469,131.9115342,facility,,,,,
43.1139878,131.9117766,facility,,,,,
43.1141997,131.9118828,facility,,,,,
43.1142529,131.9116231,facility,,,,,
43.1149199,131.8893796,alco,Brugge Pub,,,,
43.1114242,131.8829483,cafe,"О, мой кофе!",,,,
43.1375909,131.9175833,fast_food,,,,,
43.1369269,131.9251022,fast_food,,,,,
43.1634236,131.9161103,facility,,,Департамент земельных отношений,,
43.1363775,131.9612966,car_rental,Автопрокат My Car Rental,"My Car Rental — сервис по аренде автомобилей с водителем и без. Только новые автомобили популярных и престижных марок, страховка, отсутствие ограничений и скрытых сборов, европейский уровень сервиса.",My Car Rental,,
43.100997,131.8941835,medics,Дентлор,,,,
43.0956916,131.9651277,car_wash,Мистер Ойл,,,,
43.1231736,131.8873984,medics,Владивостокская детская поликлиника №5,,,,
43.2245892,131.9901404,facility,,,Соль и перец,,
43.2245846,131.9902733,alco,Соль и перец,,,,
43.1267009,131.9456298,facility,,,,,
43.1259794,131.941017,facility,,,,,
43.109509,131.9371916,facility,,,,,
43.1093941,131.9375871,fast_food,,,,,
43.1667183,131.9120772,fast_food,KFC,,,,
43.1025978,131.949593,fast_food,,,,,
43.1140839,131.9013042,restaurant,Крыша,,,,
43.1171739,131.8843551,facility,,,,,
43.1225317,131.8873621,medics,"""Клиника на Комарова"" поликлиническое отделение 3 корпус",,,,
43.1125779,131.8731201,nightclub,Zarbriski Point - Music Club,,,,
43.1562881,131.9343333,car_wash,Автомой,,,,
43.113936,131.8780033,facility,,,,,
43.0983785,131.9487092,education,Библиотека №9,,,,
43.1164067,131.8796826,facility,,,,,
43.1166079,131.8807085,cafe,,,,,
43.1276309,131.9273522,medics,"ООО ""Денталс""",,,,
43.1020948,131.910286,car_wash,,,,,
43.1339145,131.9045937,facility,,,,,
43.1152908,131.9022312,restaurant,Китайские Истории,,,,
43.1576689,131.9306957,pharmacy,,,,,
43.1454644,131.9138896,pharmacy,,,,,
43.1201655,131.8807706,restaurant,,,,,
43.150184,131.9185522,facility,,,,,
43.1523355,131.9138878,pharmacy,,,,,
43.1749985,131.9271541,facility,,,,,
43.1659404,131.9504638,pharmacy,,,,,
43.1186655,131.8805633,alco,Стерео Типы,,,,
43.122621,131.8838062,facility,,,,,
43.0984973,131.9135173,cafe,coffee STAR еДА,,,,
43.1167438,131.8799046,restaurant,Не Рыдай - Историческая Столовая,,,,
43.1489899,131.9117669,pharmacy,,,,,
43.1497689,131.9095635,pharmacy,,,,,
43.0804155,131.8483842,restaurant,,,,,
43.1647336,131.9473565,facility,,,,,
43.1187373,131.9080232,fast_food,,,,,
43.1089505,131.8787688,facility,,,,,
43.1089487,131.8800698,facility,,,,,
43.1573257,131.9122087,cafe,Пицца Просто,,,,
43.1161774,131.8873003,cafe,Пицца Просто,,,,
43.1768913,131.9293805,facility,,,,,
43.1769734,131.9292974,facility,,,,,
43.1770733,131.9292787,facility,,,,,
43.1773611,131.9291594,facility,,,,,
43.1776085,131.9288994,facility,,,,,
43.1137924,131.8950593,alco,Бар Лебовски,,,,
43.1186543,131.9224799,fast_food,,,,,
43.15906,131.9157942,facility,,,,,
43.0964146,131.8646359,car_wash,,,,,
43.087019,131.9074579,facility,,,,,
43.0870569,131.9063897,car_wash,,,,,
43.1189929,131.921158,pharmacy,Аптека Монастырёв.рф,,,,
43.1135503,131.8846203,cafe,,,,,
43.1303941,131.8907296,restaurant,Port Cafe,,,,
43.158165,131.9312825,education,Частный детский сад Китёнок,,,,
43.1072937,131.9396658,fast_food,,,,,
43.10501,131.9389296,fast_food,,,,,
43.1025364,131.9196285,pharmacy,,,,,
43.1019752,131.924576,pharmacy,,,,,
43.1181972,131.8886878,cafe,Кофе-шоп Рандеву,,,,
43.1182366,131.8887365,restaurant,Хэкымган,,,,
43.1182696,131.8884464,restaurant,Скай Бар Пасифик,,,,
43.132568,131.9102887,facility,,,,,
43.0904785,131.8593469,facility,,,,,
43.0916782,131.8605202,facility,,,,,
43.0919966,131.8572966,facility,,,,,
43.1168448,131.8818213,cafe,Local house,,,,
43.0981663,131.9197039,alco,ПИВНИЦА,,,,
43.1727627,131.9132924,facility,,,,,
43.1141044,131.8822202,restaurant,Сациви,,,,
43.1153123,131.9026708,cafe,Латте,,,,
43.0872078,131.9062985,cafe,,,,,
43.1334803,131.8867125,car_wash,Мойка самообслуживания,,,,
43.1602526,131.9182613,education,Всероссийское общество автомобилистов,,,,
43.1375438,131.8996708,alco,Биллис паб,,,,
43.1183444,131.8796489,alco,,,,,
43.1166507,131.8816011,alco,,,,,
43.1170725,131.8795785,alco,Пивной бар,,,,
43.1177115,131.8810681,cafe,Крабетия,,,,
43.119369,131.8953983,restaurant,Высота,,,,
43.1199663,131.8774084,cafe,Гусь-карась,,,,
43.1640564,131.9199443,facility,,,,,
43.1197852,131.8806646,cafe,Шашлыкофф,,,,
43.1180836,131.8803314,restaurant,,,,,
43.1106691,131.9375982,cafe,KFC,,,,
43.1048535,131.939343,cafe,KFC,,,,
43.1961221,131.9195192,facility,,,,,
43.1184979,131.882411,alco,Whisky Bar,,,,
43.1999748,131.9471744,facility,,,,,
43.1163992,131.8826113,cafe,"Oh, my coffee!",,,,
43.1163614,131.8824782,cafe,"Oh, my coffee!",,,,
43.1191849,131.9556064,pharmacy,,,,,
43.1575584,131.912956,facility,,,,,
43.1227586,131.9247971,fast_food,,,,,
43.1502842,131.9043221,facility,,,,,
43.1502973,131.9043203,facility,,,,,
43.1502674,131.9042058,facility,,,,,
43.1502904,131.9043219,facility,,,,,
43.1502781,131.9043213,facility,,,,,
43.1503191,131.9042668,facility,,,,,
43.1502661,131.9043167,facility,,,,,
43.1501251,131.9041447,facility,,,,,
43.150109,131.9041434,facility,,,,,
43.1502538,131.9042001,facility,,,,,
43.1501422,131.9041904,facility,,,,,
43.1500363,131.9041421,facility,,,,,
43.1500639,131.9041427,facility,,,,,
43.1500183,131.9043084,facility,,,,,
43.0977109,131.9138366,fast_food,,,,,
43.0998122,131.9045993,fast_food,,,,,
43.0998741,131.9042341,fast_food,,,,,
43.0989744,131.9135148,fast_food,,,,,
43.0958242,131.9106414,facility,,,,,
43.1164371,131.8828235,restaurant,,,,,
43.164253,131.939582,fast_food,,,,,
43.2316973,132.0150109,fast_food,,,,,
43.2126086,131.9507843,fast_food,Coffee Like,,Лайк,,
43.114897,131.874238,fast_food,Coffee Like,,Лайк,,
43.091536,131.970214,fast_food,Coffee Like,,Лайк,,
43.1015454,131.90513,restaurant,Супра Меоре,,,,
43.1211999,131.8761863,cafe,Coffee Like,,Новиков Владислав Евгеньевич,,
43.118089,131.8812,cafe,Coffee Like,,Новиков Владислав Евгеньевич,,
43.115897,131.8860063,cafe,Coffee Like,,Новиков Владислав Евгеньевич,,
43.2126203,131.9507039,cafe,Coffee Like,,Лайк,,
43.1179816,131.8803206,fountain,,,,,
43.1178019,131.8812652,fountain,,,,,
43.1177061,131.8817806,fountain,,,,,
43.1176089,131.8822833,fountain,,,,,
43.1157006,131.8868228,fast_food,Royal Burger,,,,
43.0873576,131.9024362,pharmacy,,,,,
43.1257225,131.9052806,medics,Медицинский центр Лотос,,,,
43.1298759,131.9349606,medics,Детская поликлиника №7,,,,
43.1295798,131.9281358,pharmacy,Адонис-Фарма,,,,
43.117114,131.8795753,alco,Алеут,,,,
43.0892203,131.8600104,atm,,,Промсвязьбанк,,
43.160683,131.9133782,atm,,,Промсвязьбанк,,
43.162462,131.95233,atm,,,Промсвязьбанк,,
43.1005032,131.9038107,atm,,,Промсвязьбанк,,
43.1012537,131.9150736,medics,Краевая клиническая больница 2,,,,
43.1015645,131.9446428,cafe,,,,,
43.1016852,131.9446038,fast_food,,,,,
43.1014641,131.9451631,pharmacy,,,,,
43.1679731,131.9142847,cafe,,,,,
43.1686083,131.912646,facility,,,,,
43.1687995,131.9144277,facility,,,,,
43.1694074,131.9132401,facility,,,,,
43.1721891,131.9139308,facility,,,,,
43.175601,131.9163327,facility,,,,,
43.1691336,131.9099636,facility,,,,,
43.1697148,131.9124849,facility,,,,,
43.1254658,131.8885887,heduction,Гуманитарно-экономический колледж ДВФУ,,,,
43.1168289,131.882509,fast_food,KFC,,,,
43.1677897,131.9117892,facility,,,,,
43.1678781,131.9110729,facility,,,,,
43.1737212,131.9166063,facility,,,,,
43.1741613,131.9142171,facility,,,,,
43.1733344,131.9147978,facility,,,,,
43.1765071,131.9140126,car_wash,,,,,
43.1762934,131.9109005,facility,,,,,
43.1760323,131.9126225,facility,,,,,
43.1025895,131.9201576,fast_food,ПитСтоп,,,,
43.1726116,131.9111082,facility,,,,,
43.1734303,131.9121242,facility,,,,,
43.1722887,131.9130727,facility,,,,,
43.1751279,131.9118275,facility,,,,,
43.1753936,131.9123465,facility,,,,,
43.175223,131.9141272,facility,,,,,
43.1711778,131.9096801,facility,,,,,
43.1704408,131.9097532,facility,,,,,
43.087369,131.9024218,pharmacy,Аптека Овита,,,,
43.1072813,131.8739578,facility,,,,,
43.1748164,131.9098236,facility,,,,,
43.1747002,131.9097928,pharmacy,,,,,
43.173286,131.9082358,car_wash,,,,,
43.1746648,131.9080527,facility,,,,,
43.1671611,131.9094924,facility,,,,,
43.1749702,131.9133876,facility,,,,,
43.174905,131.9104414,fast_food,,,,,
43.1721838,131.9087099,facility,,,,,
43.1728077,131.9091779,vehicle_ramp,,,,,
43.1703674,131.9072823,facility,,,,,
43.1710281,131.9065755,facility,,,,,
43.1712047,131.9055542,facility,,,,,
43.1703753,131.9056776,vehicle_ramp,,,,,
43.1694225,131.9096533,facility,,,,,
43.1703459,131.9064481,facility,,,,,
43.1700251,131.9068249,facility,,,,,
43.1742777,131.9052967,facility,,,,,
43.1748196,131.9069651,vehicle_ramp,,,,,
43.170634,131.9274616,facility,,,,,
43.1165127,131.8822048,cafe,Синнабон,,,,
43.1168079,131.8824354,cafe,KFC,,,,
43.1681021,131.9273982,facility,,,,,
43.1693541,131.9225326,facility,,,,,
43.1693611,131.9225815,facility,,,,,
43.1693685,131.9226321,facility,,,,,
43.1693742,131.9226823,facility,,,,,
43.0937608,131.8627019,pharmacy,,,,,
43.1662198,131.9273835,car_wash,,,,,
43.1014673,131.9236222,cafe,Корейская кухня,,,,
43.1679243,131.9143079,fountain,,,,,
43.0803347,131.8483414,cafe,,,,,
43.1215775,131.9122842,fast_food,Еда и точка,,,,
43.2322321,132.0291015,restaurant,Банкетный ресторан «Ангар»,,,,
43.0959437,131.8616807,education,,,,,
43.0926982,131.856795,cafe,Залив,,,,
43.1474989,131.907657,cafe,Pizza Land,,,,
43.0893417,131.8593332,pharmacy,,,,,
43.0894735,131.8612942,pharmacy,,,,,
43.0924828,131.8642764,medics,,,,,
43.0915739,131.8632102,education,"Центр по присмотру и уходу за детьми ""Солнечные ладошки""",,,,
43.0929264,131.8617685,veterinary,,,,,
43.1286387,131.8927936,atm,,,ДВБ,,
43.0797,131.841597,fast_food,,,,,
43.0797049,131.8417472,fast_food,,,,,
43.0796843,131.8416734,fast_food,,,,,
43.112218,131.878271,bank,Уральский банк реконструкции и развития,,УБРиР,,
43.1129026,131.9607729,bank,Сбербанк,,,,
43.1130318,131.9607635,post_office,,,,,
43.1124797,131.9553863,car_wash,,,,,
43.1134802,131.9525935,pharmacy,,,,,
43.1219764,131.9547607,pharmacy,,,,,
43.1041363,131.9618049,car_wash,,,,,
43.2140023,131.9437093,community_centre,центр культуры солнечный,,,,
43.0935002,131.9660928,car_wash,Авто Баня,,,,
43.1095709,131.9507977,car_wash,,,,,
43.1089835,131.9413815,pharmacy,,,,,
43.1133162,131.8925685,restaurant,,,,,
43.1145114,131.8943449,restaurant,Ресторан китайской кухни,,,,
43.1061862,131.9498737,fast_food,,,,,
43.1092292,131.9634068,education,Библиотека № 21,,,,
43.0973258,131.9465208,medics,,,,,
43.0976804,131.9538682,pharmacy,,,,,
43.130771,131.9050647,medics,"роддом №4, женская консультация",,,,
43.1190601,131.8816487,cafe,Сырные истории,,isakov.a@me.com,,
43.1015696,131.9048934,bank,Альфа-Банк,,"АО ""Альфа-Банк""",,ru:Альфа-банк
43.1179656,131.8858165,bank,Альфа-Банк,,"АО ""Альфа-Банк""",,ru:Альфа-банк
43.1534076,131.951096,car_wash,Krown,,,,
43.1452604,131.9529624,cafe,Шашлычная Али Баба,,,,
43.1572879,131.9405041,fast_food,,,,,
43.1602507,131.9433008,car_wash,,,,,
43.1594884,131.944225,car_wash,,,,,
43.1476616,131.9033736,boat_storage,,,,,
43.12363,131.876295,culture,Театр танца «Каури»,,МБУК «Театр танца «Каури»,,
43.11391,131.892869,culture,Приморский краевой театр кукол,,ГАУК «Приморский краевой театр кукол»,,
43.1684313,132.0826284,cafe,Жемчужина,,,,
43.1418477,131.9105458,medics,Детская поликлиника №3,,,,
43.1423233,131.9092439,facility,,,,,
43.1423884,131.9091403,facility,,,,,
43.1422656,131.9093053,facility,,,,,
43.1424711,131.9097264,facility,,,,,
43.1424481,131.909886,facility,,,,,
43.142424,131.9097427,facility,,,,,
43.1422167,131.9098927,facility,,,,,
43.1422,131.9098558,facility,,,,,
43.1009793,131.9026427,parking_entrance,,,,,
43.127177,131.922534,car_wash,,,,,
43.0919975,131.9493876,medics,,,,,
43.0910206,131.9492058,community_centre,"Детская флотилия ""Варяг""",,,,
43.0993094,131.9512738,cafe,,,,,
43.0981686,131.9519095,medics,Клиника лазерной хирургии,,,,
43.0992027,131.9415134,facility,,,,,
43.0812134,131.9395995,facility,,,,,
43.1167048,131.8812846,cafe,Pizzaiolo,"tripadvisor.com: 2019 certificate of excellence vl.ru: Лучшая пиццерия декабря 2019 г. vl.ru: Лучшая пиццерия 2018 г., Лучшая пиццерия 2019 г.",,Pizzaiolo Group,
43.1015322,131.8939885,pharmacy,,,,,
43.1003787,131.8945947,pharmacy,,,,,
43.1633912,131.9057675,fast_food,,,,,
43.1029334,131.9134668,veterinary,,,,,
43.1121001,131.9377038,atm,,,Тинькофф Банк,,
43.0960458,131.9653909,facility,,,,,
43.10155,131.9049277,bank,Альфа-банк,,,,
43.115379,131.8951462,cafe,Итальянская кофейня Pazzo,,,,
43.0996837,131.9262133,atm,,,,,
43.0995924,131.9255789,cafe,,,,,
43.0991635,131.9193951,bank,,,,,
43.098572,131.919668,bank,,,,,
43.092189,131.9187071,bank,,,,,
43.1014534,131.9458115,pharmacy,,,,,
43.1135688,131.9111344,pharmacy,,,Монастырёв,,
43.0966536,131.8992953,car_wash,,,,,
43.0937691,131.9006518,cafe,,,,,
43.0937892,131.9001563,education,,,,,
43.0936864,131.8996333,car_wash,,,,,
43.0933034,131.8846625,community_centre,,,,,
43.0939165,131.8847671,car_wash,,,,,
43.1297592,131.9258917,cafe,Pizzaiolo,"tripadvisor.com: 2019 certificate of excellence vl.ru: Лучшая пиццерия декабря 2019 г. vl.ru: Лучшая пиццерия 2018 г., Лучшая пиццерия 2019 г.",,Pizzaiolo Group,
43.1625889,131.9524871,cafe,Pizzaiolo,"tripadvisor.com: 2019 certificate of excellence vl.ru: Лучшая пиццерия декабря 2019 г. vl.ru: Лучшая пиццерия 2018 г., Лучшая пиццерия 2019 г.",,Pizzaiolo Group,
43.1233407,131.9568672,cafe,Pizzaiolo,"tripadvisor.com: 2019 certificate of excellence vl.ru: Лучшая пиццерия декабря 2019 г. vl.ru: Лучшая пиццерия 2018 г., Лучшая пиццерия 2019 г.",,Pizzaiolo Group,
43.0972574,131.9462286,heduction,Владивостокский базовый медицинский колледж,,,,
43.1250608,131.9062543,fast_food,,,,,
43.1160849,131.9203439,facility,,,,,
43.1159932,131.920443,facility,,,,,
43.1160329,131.9203784,facility,,,,,
43.1161631,131.9202787,facility,,,,,
43.1164298,131.9204272,facility,,,,,
43.0956812,131.9454615,pharmacy,,,,,
43.1195706,131.9239737,facility,,,,,
43.091378,131.9541565,pharmacy,,,,,
43.1222899,131.8876958,cafe,Кафе АЛОХА,,,,
43.1016154,131.8916852,goverment,Пункт полиции № 13,,,,
43.1001466,131.8943533,pharmacy,,,,,
43.1000536,131.8942645,cafe,,,,,
43.1018269,131.8909932,bank,,,,,
43.102203,131.8908658,cafe,,,,,
43.1501421,131.9042073,facility,,,,,
43.1501417,131.9041732,facility,,,,,
43.1500602,131.9042705,facility,,,,,
43.1500507,131.9041421,facility,,,,,
43.1499937,131.9042272,facility,,,,,
